[
  {
    "name": "Enniskillen",
    "county": "Fermanagh",
    "region": "Ireland",
    "division": "North & IOM",
    "country": "NIR",
    "station_type": "ILB",
    "lat": 54.422485350000045,
    "lon": -7.682144169999958,
    "url": "https://rnli.org/find-my-nearest/lifeboat-stations/enniskillen-lifeboat-station",
    "sap_id": "1098",
    "lifesaving_region": "Ireland",
    "lifesaving_area": "41.0"
  },
  {
    "name": "Carrybridge",
    "county": "Fermanagh",
    "region": "Ireland",
    "division": "North & IOM",
    "country": "NIR",
    "station_type": "ILB",
    "lat": 54.287517,
    "lon": -7.548423,
    "url": "https://rnli.org/find-my-nearest/lifeboat-stations/carrybridge-lifeboat-station",
    "sap_id": "1099",
    "lifesaving_region": "Ireland",
    "lifesaving_area": "41.0"
  },
  {
    "name": "Portrush",
    "county": "Antrim",
    "region": "Ireland",
    "division": "North & IOM",
    "country": "NIR",
    "station_type": "ALB",
    "lat": 55.20681,
    "lon": -6.656614779999927,
    "url": "https://rnli.org/find-my-nearest/lifeboat-stations/portrush-lifeboat-station",
    "sap_id": "1111",
    "lifesaving_region": "Ireland",
    "lifesaving_area": "35.0"
  },
  {
    "name": "Red Bay",
    "county": "Antrim",
    "region": "Ireland",
    "division": "North & IOM",
    "country": "NIR",
    "station_type": "ALB",
    "lat": 55.07499695000007,
    "lon": -6.053463939999972,
    "url": "https://rnli.org/find-my-nearest/lifeboat-stations/red-bay-lifeboat-station",
    "sap_id": "1128",
    "lifesaving_region": "Ireland",
    "lifesaving_area": "35.0"
  },
  {
    "name": "Larne",
    "county": "Antrim",
    "region": "Ireland",
    "division": "North & IOM",
    "country": "NIR",
    "station_type": "ALB",
    "lat": 54.84673309000004,
    "lon": -5.800128939999979,
    "url": "https://rnli.org/find-my-nearest/lifeboat-stations/larne-lifeboat-station",
    "sap_id": "1130",
    "lifesaving_region": "Ireland",
    "lifesaving_area": "35.0"
  },
  {
    "name": "Bangor (Co Down)",
    "county": "Down",
    "region": "Ireland",
    "division": "North & IOM",
    "country": "NIR",
    "station_type": "ILB",
    "lat": 54.665695190000065,
    "lon": -5.66716718999993,
    "url": "https://rnli.org/find-my-nearest/lifeboat-stations/bangor-lifeboat-station",
    "sap_id": "1133",
    "lifesaving_region": "Ireland",
    "lifesaving_area": "35.0"
  },
  {
    "name": "Donaghadee",
    "county": "Down",
    "region": "Ireland",
    "division": "North & IOM",
    "country": "NIR",
    "station_type": "ALB",
    "lat": 54.643432620000056,
    "lon": -5.5319838499999605,
    "url": "https://rnli.org/find-my-nearest/lifeboat-stations/donaghadee-lifeboat-station",
    "sap_id": "1155",
    "lifesaving_region": "Ireland",
    "lifesaving_area": "35.0"
  },
  {
    "name": "Portaferry",
    "county": "Down",
    "region": "Ireland",
    "division": "North & IOM",
    "country": "NIR",
    "station_type": "ILB",
    "lat": 54.38088608000004,
    "lon": -5.549289229999943,
    "url": "https://rnli.org/find-my-nearest/lifeboat-stations/portaferry-lifeboat-station",
    "sap_id": "1178",
    "lifesaving_region": "Ireland",
    "lifesaving_area": "35.0"
  },
  {
    "name": "Newcastle (Co Down)",
    "county": "Down",
    "region": "Ireland",
    "division": "North & IOM",
    "country": "NIR",
    "station_type": "ALB",
    "lat": 54.19796371000007,
    "lon": -5.8871541,
    "url": "https://rnli.org/find-my-nearest/lifeboat-stations/newcastle-lifeboat-station",
    "sap_id": "1189",
    "lifesaving_region": "Ireland",
    "lifesaving_area": "36.0"
  },
  {
    "name": "Kilkeel",
    "county": "Down",
    "region": "Ireland",
    "division": "North & IOM",
    "country": "NIR",
    "station_type": "ILB",
    "lat": 54.05849075000003,
    "lon": -5.990190979999966,
    "url": "https://rnli.org/find-my-nearest/lifeboat-stations/kilkeel-lifeboat-station",
    "sap_id": "1197",
    "lifesaving_region": "Ireland",
    "lifesaving_area": "36.0"
  },
  {
    "name": "Port Erin",
    "county": "Isle of Man",
    "region": "WalesAndWest",
    "division": "North & IOM",
    "country": "IOM",
    "station_type": "ILB",
    "lat": 54.08519363000005,
    "lon": -4.76800918999993,
    "url": "https://rnli.org/find-my-nearest/lifeboat-stations/port-erin-lifeboat-station",
    "sap_id": "1202",
    "lifesaving_region": "Wales&West",
    "lifesaving_area": "46.0"
  },
  {
    "name": "Peel",
    "county": "Isle of Man",
    "region": "WalesAndWest",
    "division": "North & IOM",
    "country": "IOM",
    "station_type": "ALB",
    "lat": 54.227096560000064,
    "lon": -4.6980500199999256,
    "url": "https://rnli.org/find-my-nearest/lifeboat-stations/peel-lifeboat-station",
    "sap_id": "1224",
    "lifesaving_region": "Wales&West",
    "lifesaving_area": "46.0"
  },
  {
    "name": "Ramsey",
    "county": "Isle of Man",
    "region": "WalesAndWest",
    "division": "North & IOM",
    "country": "IOM",
    "station_type": "ALB",
    "lat": 54.32255936000007,
    "lon": -4.378405089999944,
    "url": "https://rnli.org/find-my-nearest/lifeboat-stations/ramsey-lifeboat-station",
    "sap_id": "1246",
    "lifesaving_region": "Wales&West",
    "lifesaving_area": "46.0"
  },
  {
    "name": "Douglas",
    "county": "Isle of Man",
    "region": "WalesAndWest",
    "division": "North & IOM",
    "country": "IOM",
    "station_type": "ALB",
    "lat": 54.14487076000006,
    "lon": -4.46974610999996,
    "url": "https://rnli.org/find-my-nearest/lifeboat-stations/douglas-lifeboat-station",
    "sap_id": "1248",
    "lifesaving_region": "Wales&West",
    "lifesaving_area": "46.0"
  },
  {
    "name": "Port St Mary",
    "county": "Isle of Man",
    "region": "WalesAndWest",
    "division": "North & IOM",
    "country": "IOM",
    "station_type": "ALB",
    "lat": 54.07045364000004,
    "lon": -4.734500889999936,
    "url": "https://rnli.org/find-my-nearest/lifeboat-stations/port-st-mary-lifeboat-station",
    "sap_id": "1260",
    "lifesaving_region": "Wales&West",
    "lifesaving_area": "46.0"
  },
  {
    "name": "West Kirby",
    "county": "Merseyside",
    "region": "WalesAndWest",
    "division": "Wales & North West",
    "country": "ENG",
    "station_type": "ILB",
    "lat": 53.36605835000006,
    "lon": -3.1823439599999688,
    "url": "https://rnli.org/find-my-nearest/lifeboat-stations/west-kirby-lifeboat-station",
    "sap_id": "1301",
    "lifesaving_region": "Wales&West",
    "lifesaving_area": "30.0"
  },
  {
    "name": "Hoylake",
    "county": "Merseyside",
    "region": "WalesAndWest",
    "division": "Wales & North West",
    "country": "ENG",
    "station_type": "ALB",
    "lat": 53.399188,
    "lon": -3.177513,
    "url": "https://rnli.org/find-my-nearest/lifeboat-stations/hoylake-lifeboat-station",
    "sap_id": "1314",
    "lifesaving_region": "Wales&West",
    "lifesaving_area": "30.0"
  },
  {
    "name": "New Brighton",
    "county": "Merseyside",
    "region": "WalesAndWest",
    "division": "Wales & North West",
    "country": "ENG",
    "station_type": "ILB",
    "lat": 53.43945313000006,
    "lon": -3.0472741099999325,
    "url": "https://rnli.org/find-my-nearest/lifeboat-stations/new-brighton-lifeboat-station",
    "sap_id": "1335",
    "lifesaving_region": "Wales&West",
    "lifesaving_area": "30.0"
  },
  {
    "name": "Lytham St Annes",
    "county": "Lancashire",
    "region": "WalesAndWest",
    "division": "West & North West",
    "country": "ENG",
    "station_type": "ALB",
    "lat": 53.7467,
    "lon": -3.0325999999999453,
    "url": "https://rnli.org/find-my-nearest/lifeboat-stations/lytham-st-annes-lifeboat-station",
    "sap_id": "1357",
    "lifesaving_region": "Wales&West",
    "lifesaving_area": "30.0"
  },
  {
    "name": "Blackpool",
    "county": "Lancashire",
    "region": "WalesAndWest",
    "division": "Wales & North West",
    "country": "ENG",
    "station_type": "ILB",
    "lat": 53.81344223000008,
    "lon": -3.0560979799999473,
    "url": "https://rnli.org/find-my-nearest/lifeboat-stations/blackpool-lifeboat-station",
    "sap_id": "1379",
    "lifesaving_region": "Wales&West",
    "lifesaving_area": "31.0"
  },
  {
    "name": "Fleetwood",
    "county": "Lancashire",
    "region": "WalesAndWest",
    "division": "Wales & North West",
    "country": "ENG",
    "station_type": "ALB",
    "lat": 53.92775726000008,
    "lon": -3.0065309999999386,
    "url": "https://rnli.org/find-my-nearest/lifeboat-stations/fleetwood-lifeboat-station",
    "sap_id": "1391",
    "lifesaving_region": "Wales&West",
    "lifesaving_area": "31.0"
  },
  {
    "name": "Morecambe",
    "county": "Lancashire",
    "region": "WalesAndWest",
    "division": "Wales & North West",
    "country": "ENG",
    "station_type": "ILB",
    "lat": 54.075111390000075,
    "lon": -2.8636119399999416,
    "url": "https://rnli.org/find-my-nearest/lifeboat-stations/morecambe-lifeboat-station",
    "sap_id": "1400",
    "lifesaving_region": "Wales&West",
    "lifesaving_area": "31.0"
  },
  {
    "name": "Barrow",
    "county": "Cumbria",
    "region": "WalesAndWest",
    "division": "Wales & North West",
    "country": "ENG",
    "station_type": "ALB",
    "lat": 54.07250977000007,
    "lon": -3.1733269699999482,
    "url": "https://rnli.org/find-my-nearest/lifeboat-stations/barrow-lifeboat-station",
    "sap_id": "1422",
    "lifesaving_region": "Wales&West",
    "lifesaving_area": "31.0"
  },
  {
    "name": "St Bees",
    "county": "Cumbria",
    "region": "WalesAndWest",
    "division": "North & Scot South",
    "country": "ENG",
    "station_type": "ILB",
    "lat": 54.4910965,
    "lon": -3.606556889999979,
    "url": "https://rnli.org/find-my-nearest/lifeboat-stations/st-bees-lifeboat-station",
    "sap_id": "1444",
    "lifesaving_region": "Wales&West",
    "lifesaving_area": "31.0"
  },
  {
    "name": "Workington",
    "county": "Cumbria",
    "region": "WalesAndWest",
    "division": "North & Scot South",
    "country": "ENG",
    "station_type": "ALB",
    "lat": 54.650886540000045,
    "lon": -3.5676889399999254,
    "url": "https://rnli.org/find-my-nearest/lifeboat-stations/workington-lifeboat-station",
    "sap_id": "1466",
    "lifesaving_region": "Wales&West",
    "lifesaving_area": "31.0"
  },
  {
    "name": "Silloth",
    "county": "Cumbria",
    "region": "WalesAndWest",
    "division": "North & Scot South",
    "country": "ENG",
    "station_type": "ILB",
    "lat": 54.87001801000008,
    "lon": -3.3931660699999497,
    "url": "https://rnli.org/find-my-nearest/lifeboat-stations/silloth-lifeboat-station",
    "sap_id": "1488",
    "lifesaving_region": "Wales&West",
    "lifesaving_area": "31.0"
  },
  {
    "name": "Kippford",
    "county": "The Stewartry of Kirkcudbright",
    "region": "Scotland",
    "division": "North & Scot South",
    "country": "SCT",
    "station_type": "ILB",
    "lat": 54.876495360000035,
    "lon": -3.8134980199999404,
    "url": "https://rnli.org/find-my-nearest/lifeboat-stations/kippford-lifeboat-station",
    "sap_id": "2009",
    "lifesaving_region": "Scotland",
    "lifesaving_area": "32.0"
  },
  {
    "name": "Kirkcudbright",
    "county": "The Stewartry of Kirkcudbright",
    "region": "Scotland",
    "division": "North & Scot South",
    "country": "SCT",
    "station_type": "ILB",
    "lat": 54.794665,
    "lon": -4.062455999999941,
    "url": "https://rnli.org/find-my-nearest/lifeboat-stations/kirkcudbright-lifeboat-station",
    "sap_id": "2027",
    "lifesaving_region": "Scotland",
    "lifesaving_area": "32.0"
  },
  {
    "name": "Portpatrick",
    "county": "Wigtown",
    "region": "Scotland",
    "division": "North & Scot South",
    "country": "SCT",
    "station_type": "ALB",
    "lat": 54.84193039000007,
    "lon": -5.119918819999953,
    "url": "https://rnli.org/find-my-nearest/lifeboat-stations/portpatrick-lifeboat-station",
    "sap_id": "2045",
    "lifesaving_region": "Scotland",
    "lifesaving_area": "32.0"
  },
  {
    "name": "Stranraer",
    "county": "Wigtown",
    "region": "Scotland",
    "division": "North & Scot South",
    "country": "SCT",
    "station_type": "ILB",
    "lat": 54.90816879000005,
    "lon": -5.035224919999962,
    "url": "https://rnli.org/find-my-nearest/lifeboat-stations/stranraer-lifeboat-station",
    "sap_id": "2052",
    "lifesaving_region": "Scotland",
    "lifesaving_area": "32.0"
  },
  {
    "name": "Girvan",
    "county": "Ayrshire and Arran",
    "region": "Scotland",
    "division": "Central & Shetland",
    "country": "SCT",
    "station_type": "ALB",
    "lat": 55.243377690000045,
    "lon": -4.857638839999936,
    "url": "https://rnli.org/find-my-nearest/lifeboat-stations/girvan-lifeboat-station",
    "sap_id": "2063",
    "lifesaving_region": "Scotland",
    "lifesaving_area": "32.0"
  },
  {
    "name": "Campbeltown",
    "county": "Argyll and Bute",
    "region": "Scotland",
    "division": "Central & Shetland",
    "country": "SCT",
    "station_type": "ALB",
    "lat": 55.4251709000001,
    "lon": -5.60196303999993,
    "url": "https://rnli.org/find-my-nearest/lifeboat-stations/campbeltown-lifeboat-station",
    "sap_id": "2081",
    "lifesaving_region": "Scotland",
    "lifesaving_area": "33.0"
  },
  {
    "name": "Arran (Lamlash)",
    "county": "Ayrshire and Arran",
    "region": "Scotland",
    "division": "Central & Shetland",
    "country": "SCT",
    "station_type": "ILB",
    "lat": 55.53525925000008,
    "lon": -5.124779219999937,
    "url": "https://rnli.org/find-my-nearest/lifeboat-stations/arran-lifeboat-station",
    "sap_id": "2093",
    "lifesaving_region": "Scotland",
    "lifesaving_area": "32.0"
  },
  {
    "name": "Troon",
    "county": "Ayrshire and Arran",
    "region": "Scotland",
    "division": "Central & Shetland",
    "country": "SCT",
    "station_type": "ALB",
    "lat": 55.548122410000076,
    "lon": -4.681409839999958,
    "url": "https://rnli.org/find-my-nearest/lifeboat-stations/troon-lifeboat-station",
    "sap_id": "2108",
    "lifesaving_region": "Scotland",
    "lifesaving_area": "32.0"
  },
  {
    "name": "Islay",
    "county": "Argyll and Bute",
    "region": "Scotland",
    "division": "Central & Shetland",
    "country": "SCT",
    "station_type": "ALB",
    "lat": 55.84852219000004,
    "lon": -6.105059149999931,
    "url": "https://rnli.org/find-my-nearest/lifeboat-stations/islay-lifeboat-station",
    "sap_id": "2126",
    "lifesaving_region": "Scotland",
    "lifesaving_area": "33.0"
  },
  {
    "name": "Largs",
    "county": "Ayrshire and Arran",
    "region": "Scotland",
    "division": "Central & Shetland",
    "country": "SCT",
    "station_type": "ILB",
    "lat": 55.80015182000005,
    "lon": -4.870681759999968,
    "url": "https://rnli.org/find-my-nearest/lifeboat-stations/largs-lifeboat-station",
    "sap_id": "2144",
    "lifesaving_region": "Scotland",
    "lifesaving_area": "33.0"
  },
  {
    "name": "Helensburgh",
    "county": "Dunbartonshire",
    "region": "Scotland",
    "division": "Central & Shetland",
    "country": "SCT",
    "station_type": "ILB",
    "lat": 56.01304626000007,
    "lon": -4.773416999999938,
    "url": "https://rnli.org/find-my-nearest/lifeboat-stations/helensburgh-lifeboat-station",
    "sap_id": "2162",
    "lifesaving_region": "Scotland",
    "lifesaving_area": "33.0"
  },
  {
    "name": "Tighnabruaich",
    "county": "Argyll and Bute",
    "region": "Scotland",
    "division": "Central & Shetland",
    "country": "SCT",
    "station_type": "ILB",
    "lat": 55.90673447000006,
    "lon": -5.232641219999948,
    "url": "https://rnli.org/find-my-nearest/lifeboat-stations/tighnabruaich-lifeboat-station",
    "sap_id": "2180",
    "lifesaving_region": "Scotland",
    "lifesaving_area": "33.0"
  },
  {
    "name": "Oban",
    "county": "Argyll and Bute",
    "region": "Scotland",
    "division": "Highlands",
    "country": "SCT",
    "station_type": "ALB",
    "lat": 56.41102982000007,
    "lon": -5.479619029999981,
    "url": "https://rnli.org/find-my-nearest/lifeboat-stations/oban-lifeboat-station",
    "sap_id": "2194",
    "lifesaving_region": "Scotland",
    "lifesaving_area": "34.0"
  },
  {
    "name": "Tobermory",
    "county": "Argyll and Bute",
    "region": "Scotland",
    "division": "Highlands",
    "country": "SCT",
    "station_type": "ALB",
    "lat": 56.62326813000004,
    "lon": -6.0643777899999805,
    "url": "https://rnli.org/find-my-nearest/lifeboat-stations/tobermory-lifeboat-station",
    "sap_id": "2200",
    "lifesaving_region": "Scotland",
    "lifesaving_area": "33.0"
  },
  {
    "name": "Mallaig",
    "county": "Inverness",
    "region": "Scotland",
    "division": "Highlands",
    "country": "SCT",
    "station_type": "ALB",
    "lat": 57.00628662000008,
    "lon": -5.829009059999976,
    "url": "https://rnli.org/find-my-nearest/lifeboat-stations/mallaig-lifeboat-station",
    "sap_id": "2201",
    "lifesaving_region": "Scotland",
    "lifesaving_area": "34.0"
  },
  {
    "name": "Barra Island",
    "county": "Western Isles",
    "region": "Scotland",
    "division": "Central & Shetland",
    "country": "SCT",
    "station_type": "ALB",
    "lat": 56.95412445000005,
    "lon": -7.4871239699999705,
    "url": "https://rnli.org/find-my-nearest/lifeboat-stations/barra-island-lifeboat-station",
    "sap_id": "2223",
    "lifesaving_region": "Scotland",
    "lifesaving_area": "33.0"
  },
  {
    "name": "Kyle of Lochalsh",
    "county": "Ross and Cromarty",
    "region": "Scotland",
    "division": "Highlands",
    "country": "SCT",
    "station_type": "ILB",
    "lat": 57.280155180000065,
    "lon": -5.714704039999958,
    "url": "https://rnli.org/find-my-nearest/lifeboat-stations/kyle-of-lochalsh-lifeboat-station",
    "sap_id": "2229",
    "lifesaving_region": "Scotland",
    "lifesaving_area": "34.0"
  },
  {
    "name": "Portree",
    "county": "Ross and Cromarty",
    "region": "Scotland",
    "division": "Highlands",
    "country": "SCT",
    "station_type": "ALB",
    "lat": 57.41078949000007,
    "lon": -6.190018179999981,
    "url": "https://rnli.org/find-my-nearest/lifeboat-stations/portree-lifeboat-station",
    "sap_id": "2234",
    "lifesaving_region": "Scotland",
    "lifesaving_area": "34.0"
  },
  {
    "name": "Leverburgh",
    "county": "Western Isles",
    "region": "Scotland",
    "division": "Highlands",
    "country": "SCT",
    "station_type": "ILB",
    "lat": 57.767806,
    "lon": -7.023783,
    "url": "https://rnli.org/find-my-nearest/lifeboat-stations/leverburgh-lifeboat-station",
    "sap_id": "2240",
    "lifesaving_region": "Scotland",
    "lifesaving_area": "34.0"
  },
  {
    "name": "Stornoway",
    "county": "Western Isles",
    "region": "Scotland",
    "division": "Highlands",
    "country": "SCT",
    "station_type": "ALB",
    "lat": 58.21006393000005,
    "lon": -6.389038089999929,
    "url": "https://rnli.org/find-my-nearest/lifeboat-stations/stornoway-lifeboat-station",
    "sap_id": "2255",
    "lifesaving_region": "Scotland",
    "lifesaving_area": "34.0"
  },
  {
    "name": "Lochinver",
    "county": "Sutherland",
    "region": "Scotland",
    "division": "Highlands",
    "country": "SCT",
    "station_type": "ALB",
    "lat": 58.14678955000005,
    "lon": -5.247597219999932,
    "url": "https://rnli.org/find-my-nearest/lifeboat-stations/lochinver-lifeboat-station",
    "sap_id": "2263",
    "lifesaving_region": "Scotland",
    "lifesaving_area": "34.0"
  },
  {
    "name": "Thurso",
    "county": "Caithness",
    "region": "Scotland",
    "division": "Highlands",
    "country": "SCT",
    "station_type": "ALB",
    "lat": 58.61207962000003,
    "lon": -3.546931979999954,
    "url": "https://rnli.org/find-my-nearest/lifeboat-stations/thurso-lifeboat-station",
    "sap_id": "2281",
    "lifesaving_region": "Scotland",
    "lifesaving_area": "1.0"
  },
  {
    "name": "Longhope",
    "county": "Orkney",
    "region": "Scotland",
    "division": "Highlands",
    "country": "SCT",
    "station_type": "ALB",
    "lat": 58.80057907000008,
    "lon": -3.2069239599999264,
    "url": "https://rnli.org/find-my-nearest/lifeboat-stations/longhope-lifeboat-station",
    "sap_id": "2318",
    "lifesaving_region": "Scotland",
    "lifesaving_area": "1.0"
  },
  {
    "name": "Stromness",
    "county": "Orkney",
    "region": "Scotland",
    "division": "Highlands",
    "country": "SCT",
    "station_type": "ALB",
    "lat": 58.96333694000003,
    "lon": -3.2976899199999252,
    "url": "https://rnli.org/find-my-nearest/lifeboat-stations/stromness-lifeboat-station",
    "sap_id": "2336",
    "lifesaving_region": "Scotland",
    "lifesaving_area": "1.0"
  },
  {
    "name": "Aith",
    "county": "Shetland",
    "region": "Scotland",
    "division": "Central & Shetland",
    "country": "SCT",
    "station_type": "ALB",
    "lat": 60.28630829000008,
    "lon": -1.3752139799999554,
    "url": "https://rnli.org/find-my-nearest/lifeboat-stations/aith-lifeboat-station",
    "sap_id": "2354",
    "lifesaving_region": "Scotland",
    "lifesaving_area": "1.0"
  },
  {
    "name": "Lerwick",
    "county": "Shetland",
    "region": "Scotland",
    "division": "Central & Shetland",
    "country": "SCT",
    "station_type": "ALB",
    "lat": 60.1532402,
    "lon": -1.14059304999995,
    "url": "https://rnli.org/find-my-nearest/lifeboat-stations/lerwick-lifeboat-station",
    "sap_id": "2372",
    "lifesaving_region": "Scotland",
    "lifesaving_area": "1.0"
  },
  {
    "name": "Kirkwall",
    "county": "Orkney",
    "region": "Scotland",
    "division": "Highlands",
    "country": "SCT",
    "station_type": "ALB",
    "lat": 58.98542786000007,
    "lon": -2.9603650599999582,
    "url": "https://rnli.org/find-my-nearest/lifeboat-stations/kirkwall-lifeboat-station",
    "sap_id": "2390",
    "lifesaving_region": "Scotland",
    "lifesaving_area": "1.0"
  },
  {
    "name": "Wick",
    "county": "Caithness",
    "region": "Scotland",
    "division": "Highlands",
    "country": "SCT",
    "station_type": "ALB",
    "lat": 58.43935013000004,
    "lon": -3.082926039999961,
    "url": "https://rnli.org/find-my-nearest/lifeboat-stations/wick-lifeboat-station",
    "sap_id": "2401",
    "lifesaving_region": "Scotland",
    "lifesaving_area": "2.0"
  },
  {
    "name": "Invergordon",
    "county": "Ross and Cromarty",
    "region": "Scotland",
    "division": "Highlands",
    "country": "SCT",
    "station_type": "ALB",
    "lat": 57.686546330000056,
    "lon": -4.167407039999944,
    "url": "https://rnli.org/find-my-nearest/lifeboat-stations/invergordon-lifeboat-station",
    "sap_id": "2415",
    "lifesaving_region": "Scotland",
    "lifesaving_area": "2.0"
  },
  {
    "name": "Kessock",
    "county": "Ross and Cromarty",
    "region": "Scotland",
    "division": "Highlands",
    "country": "SCT",
    "station_type": "ILB",
    "lat": 57.50094223000008,
    "lon": -4.234661099999926,
    "url": "https://rnli.org/find-my-nearest/lifeboat-stations/kessock-lifeboat-station",
    "sap_id": "2419",
    "lifesaving_region": "Scotland",
    "lifesaving_area": "2.0"
  },
  {
    "name": "Loch Ness",
    "county": "Inverness",
    "region": "Scotland",
    "division": "Highlands",
    "country": "SCT",
    "station_type": "ILB",
    "lat": 57.33672714000005,
    "lon": -4.444436069999938,
    "url": "https://rnli.org/find-my-nearest/lifeboat-stations/loch-ness-lifeboat-station",
    "sap_id": "2421",
    "lifesaving_region": "Scotland",
    "lifesaving_area": "2.0"
  },
  {
    "name": "Buckie",
    "county": "Banffshire",
    "region": "Scotland",
    "division": "Highlands",
    "country": "SCT",
    "station_type": "ALB",
    "lat": 57.68086624000006,
    "lon": -2.9527120599999535,
    "url": "https://rnli.org/find-my-nearest/lifeboat-stations/buckie-lifeboat-station",
    "sap_id": "2423",
    "lifesaving_region": "Scotland",
    "lifesaving_area": "2.0"
  },
  {
    "name": "Macduff",
    "county": "Banffshire",
    "region": "Scotland",
    "division": "Highlands",
    "country": "SCT",
    "station_type": "ILB",
    "lat": 57.67272568000004,
    "lon": -2.494333979999965,
    "url": "https://rnli.org/find-my-nearest/lifeboat-stations/macduff-lifeboat-station",
    "sap_id": "2434",
    "lifesaving_region": "Scotland",
    "lifesaving_area": "2.0"
  },
  {
    "name": "Fraserburgh",
    "county": "Aberdeenshire",
    "region": "Scotland",
    "division": "Highlands",
    "country": "SCT",
    "station_type": "ALB",
    "lat": 57.6935463,
    "lon": -2.0028109599999766,
    "url": "https://rnli.org/find-my-nearest/lifeboat-stations/fraserburgh-lifeboat-station",
    "sap_id": "2445",
    "lifesaving_region": "Scotland",
    "lifesaving_area": "3.0"
  },
  {
    "name": "Peterhead",
    "county": "Aberdeenshire",
    "region": "Scotland",
    "division": "Highlands",
    "country": "SCT",
    "station_type": "ALB",
    "lat": 57.50308228000006,
    "lon": -1.7746330499999772,
    "url": "https://rnli.org/find-my-nearest/lifeboat-stations/peterhead-lifeboat-station",
    "sap_id": "2467",
    "lifesaving_region": "Scotland",
    "lifesaving_area": "3.0"
  },
  {
    "name": "Aberdeen",
    "county": "City of Aberdeen",
    "region": "Scotland",
    "division": "Central & Shetland",
    "country": "SCT",
    "station_type": "ALB",
    "lat": 57.14404678000005,
    "lon": -2.0804290799999308,
    "url": "https://rnli.org/find-my-nearest/lifeboat-stations/aberdeen-lifeboat-station",
    "sap_id": "2489",
    "lifesaving_region": "Scotland",
    "lifesaving_area": "3.0"
  },
  {
    "name": "Stonehaven",
    "county": "Kincardineshire",
    "region": "Scotland",
    "division": "Central & Shetland",
    "country": "SCT",
    "station_type": "ILB",
    "lat": 56.9610727,
    "lon": -2.2027272999999354,
    "url": "https://rnli.org/find-my-nearest/lifeboat-stations/stonehaven-lifeboat-station",
    "sap_id": "2502",
    "lifesaving_region": "Scotland",
    "lifesaving_area": "3.0"
  },
  {
    "name": "Montrose",
    "county": "Angus",
    "region": "Scotland",
    "division": "Central & Shetland",
    "country": "SCT",
    "station_type": "ALB",
    "lat": 56.7068,
    "lon": -2.4721,
    "url": "https://rnli.org/find-my-nearest/lifeboat-stations/montrose-lifeboat-station",
    "sap_id": "2524",
    "lifesaving_region": "Scotland",
    "lifesaving_area": "3.0"
  },
  {
    "name": "Arbroath",
    "county": "Angus",
    "region": "Scotland",
    "division": "Central & Shetland",
    "country": "SCT",
    "station_type": "ALB",
    "lat": 56.55530167000006,
    "lon": -2.5848391099999617,
    "url": "https://rnli.org/find-my-nearest/lifeboat-stations/arbroath-lifeboat-station",
    "sap_id": "2546",
    "lifesaving_region": "Scotland",
    "lifesaving_area": "3.0"
  },
  {
    "name": "Broughty Ferry",
    "county": "City of Dundee",
    "region": "Scotland",
    "division": "Central & Shetland",
    "country": "SCT",
    "station_type": "ALB",
    "lat": 56.46497726000007,
    "lon": -2.877309079999975,
    "url": "https://rnli.org/find-my-nearest/lifeboat-stations/broughty-ferry-lifeboat-station",
    "sap_id": "2568",
    "lifesaving_region": "Scotland",
    "lifesaving_area": "4.0"
  },
  {
    "name": "Anstruther",
    "county": "Fife",
    "region": "Scotland",
    "division": "Central & Shetland",
    "country": "SCT",
    "station_type": "ALB",
    "lat": 56.22143936000003,
    "lon": -2.697385069999939,
    "url": "https://rnli.org/find-my-nearest/lifeboat-stations/anstruther-lifeboat-station",
    "sap_id": "2580",
    "lifesaving_region": "Scotland",
    "lifesaving_area": "4.0"
  },
  {
    "name": "Kinghorn",
    "county": "Fife",
    "region": "Scotland",
    "division": "Central & Shetland",
    "country": "SCT",
    "station_type": "ILB",
    "lat": 56.06860352000007,
    "lon": -3.1740729799999485,
    "url": "https://rnli.org/find-my-nearest/lifeboat-stations/kinghorn-lifeboat-station",
    "sap_id": "2611",
    "lifesaving_region": "Scotland",
    "lifesaving_area": "4.0"
  },
  {
    "name": "Queensferry",
    "county": "City of Edinburgh",
    "region": "Scotland",
    "division": "Central & Shetland",
    "country": "SCT",
    "station_type": "ILB",
    "lat": 55.99063492000005,
    "lon": -3.3852589099999477,
    "url": "https://rnli.org/find-my-nearest/lifeboat-stations/queensferry-lifeboat-station",
    "sap_id": "2633",
    "lifesaving_region": "Scotland",
    "lifesaving_area": "4.0"
  },
  {
    "name": "North Berwick",
    "county": "East Lothian",
    "region": "Scotland",
    "division": "Central & Shetland",
    "country": "SCT",
    "station_type": "ILB",
    "lat": 56.06032944000003,
    "lon": -2.7176439799999343,
    "url": "https://rnli.org/find-my-nearest/lifeboat-stations/north-berwick-lifeboat-station",
    "sap_id": "2655",
    "lifesaving_region": "Scotland",
    "lifesaving_area": "4.0"
  },
  {
    "name": "Dunbar",
    "county": "East Lothian",
    "region": "Scotland",
    "division": "Central & Shetland",
    "country": "SCT",
    "station_type": "ALB",
    "lat": 56.00503922000007,
    "lon": -2.514944079999964,
    "url": "https://rnli.org/find-my-nearest/lifeboat-stations/dunbar-lifeboat-station",
    "sap_id": "2677",
    "lifesaving_region": "Scotland",
    "lifesaving_area": "4.0"
  },
  {
    "name": "Eyemouth",
    "county": "Berwickshire",
    "region": "Scotland",
    "division": "Central & Shetland",
    "country": "SCT",
    "station_type": "ALB",
    "lat": 55.87217712000006,
    "lon": -2.0861148799999683,
    "url": "https://rnli.org/find-my-nearest/lifeboat-stations/eyemouth-lifeboat-station",
    "sap_id": "2702",
    "lifesaving_region": "Scotland",
    "lifesaving_area": "4.0"
  },
  {
    "name": "Berwick-Upon-Tweed",
    "county": "Northumberland",
    "region": "NorthAndEast",
    "division": "North & Scot South",
    "country": "ENG",
    "station_type": "ALB",
    "lat": 55.76094818000007,
    "lon": -2.0002679799999328,
    "url": "https://rnli.org/find-my-nearest/lifeboat-stations/berwick-upon-tweed-lifeboat-station",
    "sap_id": "3029",
    "lifesaving_region": "North&East",
    "lifesaving_area": "5.0"
  },
  {
    "name": "Seahouses",
    "county": "Northumberland",
    "region": "NorthAndEast",
    "division": "North & Scot South",
    "country": "ENG",
    "station_type": "ALB",
    "lat": 55.58288574000005,
    "lon": -1.6540319899999645,
    "url": "https://rnli.org/find-my-nearest/lifeboat-stations/seahouses-lifeboat-station",
    "sap_id": "3047",
    "lifesaving_region": "North&East",
    "lifesaving_area": "5.0"
  },
  {
    "name": "Craster",
    "county": "Northumberland",
    "region": "NorthAndEast",
    "division": "North & Scot South",
    "country": "ENG",
    "station_type": "ILB",
    "lat": 55.47262192000005,
    "lon": -1.5941599599999563,
    "url": "https://rnli.org/find-my-nearest/lifeboat-stations/craster-lifeboat-station",
    "sap_id": "3065",
    "lifesaving_region": "North&East",
    "lifesaving_area": "5.0"
  },
  {
    "name": "Amble",
    "county": "Northumberland",
    "region": "NorthAndEast",
    "division": "North & Scot South",
    "country": "ENG",
    "station_type": "ALB",
    "lat": 55.33644867000004,
    "lon": -1.5816769599999247,
    "url": "https://rnli.org/find-my-nearest/lifeboat-stations/amble-lifeboat-station",
    "sap_id": "3083",
    "lifesaving_region": "North&East",
    "lifesaving_area": "5.0"
  },
  {
    "name": "Newbiggin",
    "county": "Northumberland",
    "region": "NorthAndEast",
    "division": "North & Scot South",
    "country": "ENG",
    "station_type": "ILB",
    "lat": 55.18592453000008,
    "lon": -1.5065890599999534,
    "url": "https://rnli.org/find-my-nearest/lifeboat-stations/newbiggin-lifeboat-station",
    "sap_id": "3101",
    "lifesaving_region": "North&East",
    "lifesaving_area": "5.0"
  },
  {
    "name": "Blyth",
    "county": "Northumberland",
    "region": "NorthAndEast",
    "division": "North & Scot South",
    "country": "ENG",
    "station_type": "ILB",
    "lat": 55.12559128000004,
    "lon": -1.4980490199999394,
    "url": "https://rnli.org/find-my-nearest/lifeboat-stations/blyth-lifeboat-station",
    "sap_id": "3120",
    "lifesaving_region": "North&East",
    "lifesaving_area": "5.0"
  },
  {
    "name": "Cullercoats",
    "county": "Tyne & Wear",
    "region": "NorthAndEast",
    "division": "North & Scot South",
    "country": "ENG",
    "station_type": "ILB",
    "lat": 55.0355072,
    "lon": -1.4320529699999724,
    "url": "https://rnli.org/find-my-nearest/lifeboat-stations/cullercoats-lifeboat-station",
    "sap_id": "3148",
    "lifesaving_region": "North&East",
    "lifesaving_area": "5.0"
  },
  {
    "name": "Tynemouth",
    "county": "Tyne & Wear",
    "region": "NorthAndEast",
    "division": "North & Scot South",
    "country": "ENG",
    "station_type": "ALB",
    "lat": 55.00916672000005,
    "lon": -1.4328980499999489,
    "url": "https://rnli.org/find-my-nearest/lifeboat-stations/tynemouth-lifeboat-station",
    "sap_id": "3156",
    "lifesaving_region": "North&East",
    "lifesaving_area": "6.0"
  },
  {
    "name": "Sunderland",
    "county": "Tyne & Wear",
    "region": "NorthAndEast",
    "division": "North & Scot South",
    "country": "ENG",
    "station_type": "ILB",
    "lat": 54.920486450000055,
    "lon": -1.3644399599999701,
    "url": "https://rnli.org/find-my-nearest/lifeboat-stations/sunderland-lifeboat-station",
    "sap_id": "3167",
    "lifesaving_region": "North&East",
    "lifesaving_area": "6.0"
  },
  {
    "name": "Hartlepool",
    "county": "Durham",
    "region": "NorthAndEast",
    "division": "North & Scot South",
    "country": "ENG",
    "station_type": "ALB",
    "lat": 54.69483948000004,
    "lon": -1.191038009999943,
    "url": "https://rnli.org/find-my-nearest/lifeboat-stations/hartlepool-lifeboat-station",
    "sap_id": "3210",
    "lifesaving_region": "North&East",
    "lifesaving_area": "6.0"
  },
  {
    "name": "Redcar",
    "county": "North Yorkshire",
    "region": "NorthAndEast",
    "division": "North & Scot South",
    "country": "ENG",
    "station_type": "ILB",
    "lat": 54.61857224000005,
    "lon": -1.0636999599999513,
    "url": "https://rnli.org/find-my-nearest/lifeboat-stations/redcar-lifeboat-station",
    "sap_id": "3231",
    "lifesaving_region": "North&East",
    "lifesaving_area": "6.0"
  },
  {
    "name": "Staithes and Runswick",
    "county": "North Yorkshire",
    "region": "NorthAndEast",
    "division": "North & Scot South",
    "country": "ENG",
    "station_type": "ILB",
    "lat": 54.559787750000055,
    "lon": -0.7917690299999549,
    "url": "https://rnli.org/find-my-nearest/lifeboat-stations/staithes-and-runswick-lifeboat-station",
    "sap_id": "3249",
    "lifesaving_region": "North&East",
    "lifesaving_area": "6.0"
  },
  {
    "name": "Whitby",
    "county": "North Yorkshire",
    "region": "NorthAndEast",
    "division": "North & Scot South",
    "country": "ENG",
    "station_type": "ALB",
    "lat": 54.48812866000003,
    "lon": -0.6130779999999731,
    "url": "https://rnli.org/find-my-nearest/lifeboat-stations/whitby-lifeboat-station",
    "sap_id": "3276",
    "lifesaving_region": "North&East",
    "lifesaving_area": "6.0"
  },
  {
    "name": "Scarborough",
    "county": "North Yorkshire",
    "region": "NorthAndEast",
    "division": "North & Scot South",
    "country": "ENG",
    "station_type": "ALB",
    "lat": 54.283412930000054,
    "lon": -0.3930939999999623,
    "url": "https://rnli.org/find-my-nearest/lifeboat-stations/scarborough-lifeboat-station",
    "sap_id": "3298",
    "lifesaving_region": "North&East",
    "lifesaving_area": "6.0"
  },
  {
    "name": "Filey",
    "county": "North Yorkshire",
    "region": "NorthAndEast",
    "division": "North & Scot South",
    "country": "ENG",
    "station_type": "ILB",
    "lat": 54.2113266000001,
    "lon": -0.28338598999994247,
    "url": "https://rnli.org/find-my-nearest/lifeboat-stations/filey-lifeboat-station",
    "sap_id": "3319",
    "lifesaving_region": "North&East",
    "lifesaving_area": "7.0"
  },
  {
    "name": "Flamborough",
    "county": "East Riding of Yorkshire",
    "region": "NorthAndEast",
    "division": "East",
    "country": "ENG",
    "station_type": "ILB",
    "lat": 54.1047287000001,
    "lon": -0.11897699999997258,
    "url": "https://rnli.org/find-my-nearest/lifeboat-stations/flamborough-lifeboat-station",
    "sap_id": "3337",
    "lifesaving_region": "North&East",
    "lifesaving_area": "7.0"
  },
  {
    "name": "Bridlington",
    "county": "East Riding of Yorkshire",
    "region": "NorthAndEast",
    "division": "East",
    "country": "ENG",
    "station_type": "ALB",
    "lat": 54.078491,
    "lon": -0.1979059999999322,
    "url": "https://rnli.org/find-my-nearest/lifeboat-stations/bridlington-lifeboat-station",
    "sap_id": "3355",
    "lifesaving_region": "North&East",
    "lifesaving_area": "7.0"
  },
  {
    "name": "Withernsea",
    "county": "East Riding of Yorkshire",
    "region": "NorthAndEast",
    "division": "East",
    "country": "ENG",
    "station_type": "ILB",
    "lat": 53.72606659000007,
    "lon": 0.04074800000006462,
    "url": "https://rnli.org/find-my-nearest/lifeboat-stations/withernsea-lifeboat-station",
    "sap_id": "3361",
    "lifesaving_region": "North&East",
    "lifesaving_area": "7.0"
  },
  {
    "name": "Humber",
    "county": "East Riding of Yorkshire",
    "region": "NorthAndEast",
    "division": "East",
    "country": "ENG",
    "station_type": "ALB",
    "lat": 53.58114806000003,
    "lon": -0.06623706899995341,
    "url": "https://rnli.org/find-my-nearest/lifeboat-stations/humber-lifeboat-station",
    "sap_id": "3373",
    "lifesaving_region": "North&East",
    "lifesaving_area": "8.0"
  },
  {
    "name": "Cleethorpes",
    "county": "Lincolnshire",
    "region": "NorthAndEast",
    "division": "East",
    "country": "ENG",
    "station_type": "ILB",
    "lat": 53.556968690000076,
    "lon": -0.02329599999995935,
    "url": "https://rnli.org/find-my-nearest/lifeboat-stations/cleethorpes-lifeboat-station",
    "sap_id": "3384",
    "lifesaving_region": "North&East",
    "lifesaving_area": "7.0"
  },
  {
    "name": "Mablethorpe",
    "county": "Lincolnshire",
    "region": "NorthAndEast",
    "division": "East",
    "country": "ENG",
    "station_type": "ILB",
    "lat": 53.34079742000006,
    "lon": 0.2659030000000371,
    "url": "https://rnli.org/find-my-nearest/lifeboat-stations/mablethorpe-lifeboat-station",
    "sap_id": "3402",
    "lifesaving_region": "North&East",
    "lifesaving_area": "8.0"
  },
  {
    "name": "Skegness",
    "county": "Lincolnshire",
    "region": "NorthAndEast",
    "division": "East",
    "country": "ENG",
    "station_type": "ALB",
    "lat": 53.14180374000006,
    "lon": 0.34675601000003553,
    "url": "https://rnli.org/find-my-nearest/lifeboat-stations/skegness-lifeboat-station",
    "sap_id": "3424",
    "lifesaving_region": "North&East",
    "lifesaving_area": "8.0"
  },
  {
    "name": "Hunstanton",
    "county": "Norfolk",
    "region": "NorthAndEast",
    "division": "East",
    "country": "ENG",
    "station_type": "ILB",
    "lat": 52.95406342000007,
    "lon": 0.5026810200000682,
    "url": "https://rnli.org/find-my-nearest/lifeboat-stations/hunstanton-lifeboat-station",
    "sap_id": "3435",
    "lifesaving_region": "North&East",
    "lifesaving_area": "8.0"
  },
  {
    "name": "Wells",
    "county": "Norfolk",
    "region": "NorthAndEast",
    "division": "East",
    "country": "ENG",
    "station_type": "ALB",
    "lat": 52.972976680000045,
    "lon": 0.8517649800000413,
    "url": "https://rnli.org/find-my-nearest/lifeboat-stations/wells-lifeboat-station",
    "sap_id": "3446",
    "lifesaving_region": "North&East",
    "lifesaving_area": "8.0"
  },
  {
    "name": "Sheringham",
    "county": "Norfolk",
    "region": "NorthAndEast",
    "division": "East",
    "country": "ENG",
    "station_type": "ILB",
    "lat": 52.945961,
    "lon": 1.2026269400000729,
    "url": "https://rnli.org/find-my-nearest/lifeboat-stations/sheringham-lifeboat-station",
    "sap_id": "3468",
    "lifesaving_region": "North&East",
    "lifesaving_area": "8.0"
  },
  {
    "name": "Cromer",
    "county": "Norfolk",
    "region": "NorthAndEast",
    "division": "East",
    "country": "ENG",
    "station_type": "ALB",
    "lat": 52.93429947000004,
    "lon": 1.301633,
    "url": "https://rnli.org/find-my-nearest/lifeboat-stations/cromer-lifeboat-station",
    "sap_id": "3507",
    "lifesaving_region": "North&East",
    "lifesaving_area": "9.0"
  },
  {
    "name": "Happisburgh",
    "county": "Norfolk",
    "region": "NorthAndEast",
    "division": "East",
    "country": "ENG",
    "station_type": "ILB",
    "lat": 52.81329817000005,
    "lon": 1.5561973200000239,
    "url": "https://rnli.org/find-my-nearest/lifeboat-stations/happisburgh-lifeboat-station",
    "sap_id": "3531",
    "lifesaving_region": "North&East",
    "lifesaving_area": "9.0"
  },
  {
    "name": "Great Yarmouth and Gorleston",
    "county": "Norfolk",
    "region": "NorthAndEast",
    "division": "East",
    "country": "ENG",
    "station_type": "ALB",
    "lat": 52.5752182000001,
    "lon": 1.7319179800000484,
    "url": "https://rnli.org/find-my-nearest/lifeboat-stations/great-yarmouth-and-gorleston-lifeboat-station",
    "sap_id": "3553",
    "lifesaving_region": "North&East",
    "lifesaving_area": "9.0"
  },
  {
    "name": "Lowestoft",
    "county": "Suffolk",
    "region": "NorthAndEast",
    "division": "East",
    "country": "ENG",
    "station_type": "ALB",
    "lat": 52.47167206000006,
    "lon": 1.7529870300000425,
    "url": "https://rnli.org/find-my-nearest/lifeboat-stations/lowestoft-lifeboat-station",
    "sap_id": "3575",
    "lifesaving_region": "North&East",
    "lifesaving_area": "9.0"
  },
  {
    "name": "Southwold",
    "county": "Suffolk",
    "region": "NorthAndEast",
    "division": "East",
    "country": "ENG",
    "station_type": "ILB",
    "lat": 52.31496048000008,
    "lon": 1.6724669900000322,
    "url": "https://rnli.org/find-my-nearest/lifeboat-stations/southwold-lifeboat-station",
    "sap_id": "3597",
    "lifesaving_region": "North&East",
    "lifesaving_area": "9.0"
  },
  {
    "name": "Aldeburgh",
    "county": "Suffolk",
    "region": "NorthAndEast",
    "division": "East",
    "country": "ENG",
    "station_type": "ALB",
    "lat": 52.15307999000004,
    "lon": 1.602759,
    "url": "https://rnli.org/find-my-nearest/lifeboat-stations/aldeburgh-lifeboat-station",
    "sap_id": "3624",
    "lifesaving_region": "North&East",
    "lifesaving_area": "9.0"
  },
  {
    "name": "Harwich",
    "county": "Essex",
    "region": "NorthAndEast",
    "division": "East",
    "country": "ENG",
    "station_type": "ALB",
    "lat": 51.94859695000008,
    "lon": 1.2871220100000755,
    "url": "https://rnli.org/find-my-nearest/lifeboat-stations/harwich-lifeboat-station",
    "sap_id": "3646",
    "lifesaving_region": "North&East",
    "lifesaving_area": "10.0"
  },
  {
    "name": "Walton and Frinton",
    "county": "Essex",
    "region": "NorthAndEast",
    "division": "East",
    "country": "ENG",
    "station_type": "ALB",
    "lat": 51.84725952000008,
    "lon": 1.271165010000061,
    "url": "https://rnli.org/find-my-nearest/lifeboat-stations/walton-and-frinton-lifeboat-station",
    "sap_id": "3668",
    "lifesaving_region": "North&East",
    "lifesaving_area": "10.0"
  },
  {
    "name": "Clacton-on-Sea",
    "county": "Essex",
    "region": "NorthAndEast",
    "division": "East",
    "country": "ENG",
    "station_type": "ILB",
    "lat": 51.78152847000007,
    "lon": 1.1412689700000556,
    "url": "https://rnli.org/find-my-nearest/lifeboat-stations/clacton-on-sea-lifeboat-station",
    "sap_id": "3708",
    "lifesaving_region": "North&East",
    "lifesaving_area": "10.0"
  },
  {
    "name": "West Mersea",
    "county": "Essex",
    "region": "NorthAndEast",
    "division": "East",
    "country": "ENG",
    "station_type": "ILB",
    "lat": 51.7803154000001,
    "lon": 0.8987680100000262,
    "url": "https://rnli.org/find-my-nearest/lifeboat-stations/west-mersea-lifeboat-station",
    "sap_id": "3710",
    "lifesaving_region": "North&East",
    "lifesaving_area": "10.0"
  },
  {
    "name": "Burnham-on-Crouch",
    "county": "Essex",
    "region": "NorthAndEast",
    "division": "South East",
    "country": "ENG",
    "station_type": "ILB",
    "lat": 51.62918472000007,
    "lon": 0.8025299900000391,
    "url": "https://rnli.org/find-my-nearest/lifeboat-stations/burnham-on-crouch-lifeboat-station",
    "sap_id": "4500",
    "lifesaving_region": "North&East",
    "lifesaving_area": "10.0"
  },
  {
    "name": "Southend-on-Sea",
    "county": "Essex",
    "region": "South East",
    "division": "South East",
    "country": "ENG",
    "station_type": "ILB",
    "lat": 51.53242493000005,
    "lon": 0.7163460300000679,
    "url": "https://rnli.org/find-my-nearest/lifeboat-stations/southend-on-sea-lifeboat-station",
    "sap_id": "4522",
    "lifesaving_region": "South East",
    "lifesaving_area": "11.0"
  },
  {
    "name": "Gravesend",
    "county": "Kent",
    "region": "South East",
    "division": "South East",
    "country": "ENG",
    "station_type": "ILB",
    "lat": 51.44527054000008,
    "lon": 0.37455401000005395,
    "url": "https://rnli.org/find-my-nearest/lifeboat-stations/gravesend-lifeboat-station",
    "sap_id": "4530",
    "lifesaving_region": "South East",
    "lifesaving_area": "11.0"
  },
  {
    "name": "Tower",
    "county": "Greater London",
    "region": "South East",
    "division": "South East",
    "country": "ENG",
    "station_type": "ILB",
    "lat": 51.5099678,
    "lon": -0.11736799999994219,
    "url": "https://rnli.org/find-my-nearest/lifeboat-stations/tower-lifeboat-station",
    "sap_id": "4533",
    "lifesaving_region": "South East",
    "lifesaving_area": "11.0"
  },
  {
    "name": "Chiswick",
    "county": "Greater London",
    "region": "South East",
    "division": "South East",
    "country": "ENG",
    "station_type": "ILB",
    "lat": 51.48213577000007,
    "lon": -0.25157799999993813,
    "url": "https://rnli.org/find-my-nearest/lifeboat-stations/chiswick-lifeboat-station",
    "sap_id": "4536",
    "lifesaving_region": "South East",
    "lifesaving_area": "11.0"
  },
  {
    "name": "Teddington",
    "county": "Greater London",
    "region": "South East",
    "division": "South East",
    "country": "ENG",
    "station_type": "ILB",
    "lat": 51.4308548000001,
    "lon": -0.3257189999999355,
    "url": "https://rnli.org/find-my-nearest/lifeboat-stations/teddington-lifeboat-station",
    "sap_id": "4539",
    "lifesaving_region": "South East",
    "lifesaving_area": "11.0"
  },
  {
    "name": "Sheerness",
    "county": "Kent",
    "region": "South East",
    "division": "South East",
    "country": "ENG",
    "station_type": "ALB",
    "lat": 51.445604,
    "lon": 0.7445580000000405,
    "url": "https://rnli.org/find-my-nearest/lifeboat-stations/sheerness-lifeboat-station",
    "sap_id": "4544",
    "lifesaving_region": "South East",
    "lifesaving_area": "12.0"
  },
  {
    "name": "Whitstable",
    "county": "Kent",
    "region": "South East",
    "division": "South East",
    "country": "ENG",
    "station_type": "ILB",
    "lat": 51.362560270000074,
    "lon": 1.025771020000036,
    "url": "https://rnli.org/find-my-nearest/lifeboat-stations/whitstable-lifeboat-station",
    "sap_id": "4566",
    "lifesaving_region": "South East",
    "lifesaving_area": "12.0"
  },
  {
    "name": "Margate",
    "county": "Kent",
    "region": "South East",
    "division": "South East",
    "country": "ENG",
    "station_type": "ILB",
    "lat": 51.39163971000005,
    "lon": 1.382748010000057,
    "url": "https://rnli.org/find-my-nearest/lifeboat-stations/margate-lifeboat-station",
    "sap_id": "4588",
    "lifesaving_region": "South East",
    "lifesaving_area": "12.0"
  },
  {
    "name": "Ramsgate",
    "county": "Kent",
    "region": "South East",
    "division": "South East",
    "country": "ENG",
    "station_type": "ALB",
    "lat": 51.32898712000008,
    "lon": 1.4197950400000536,
    "url": "https://rnli.org/find-my-nearest/lifeboat-stations/ramsgate-lifeboat-station",
    "sap_id": "4608",
    "lifesaving_region": "South East",
    "lifesaving_area": "12.0"
  },
  {
    "name": "Walmer",
    "county": "Kent",
    "region": "South East",
    "division": "South East",
    "country": "ENG",
    "station_type": "ILB",
    "lat": 51.213535310000054,
    "lon": 1.4030369500000575,
    "url": "https://rnli.org/find-my-nearest/lifeboat-stations/walmer-lifeboat-station",
    "sap_id": "4626",
    "lifesaving_region": "South East",
    "lifesaving_area": "12.0"
  },
  {
    "name": "Dover",
    "county": "Kent",
    "region": "South East",
    "division": "South East",
    "country": "ENG",
    "station_type": "ALB",
    "lat": 51.11825562000007,
    "lon": 1.310683010000048,
    "url": "https://rnli.org/find-my-nearest/lifeboat-stations/dover-lifeboat-station",
    "sap_id": "5113",
    "lifesaving_region": "South East",
    "lifesaving_area": "13.0"
  },
  {
    "name": "Littlestone-on-Sea",
    "county": "Kent",
    "region": "South East",
    "division": "South East",
    "country": "ENG",
    "station_type": "ILB",
    "lat": 50.97462082000004,
    "lon": 0.9655870200000436,
    "url": "https://rnli.org/find-my-nearest/lifeboat-stations/littlestone-on-sea-lifeboat-station",
    "sap_id": "5135",
    "lifesaving_region": "South East",
    "lifesaving_area": "13.0"
  },
  {
    "name": "Dungeness",
    "county": "Kent",
    "region": "South East",
    "division": "South East",
    "country": "ENG",
    "station_type": "ALB",
    "lat": 50.92647934000007,
    "lon": 0.976473990000045,
    "url": "https://rnli.org/find-my-nearest/lifeboat-stations/dungeness-lifeboat-station",
    "sap_id": "5146",
    "lifesaving_region": "South East",
    "lifesaving_area": "13.0"
  },
  {
    "name": "Rye Harbour",
    "county": "East Sussex",
    "region": "South East",
    "division": "South East",
    "country": "ENG",
    "station_type": "ILB",
    "lat": 50.938472750000074,
    "lon": 0.7640489900000489,
    "url": "https://rnli.org/find-my-nearest/lifeboat-stations/rye-harbour-lifeboat-station",
    "sap_id": "5167",
    "lifesaving_region": "South East",
    "lifesaving_area": "13.0"
  },
  {
    "name": "Hastings",
    "county": "East Sussex",
    "region": "South East",
    "division": "South East",
    "country": "ENG",
    "station_type": "ALB",
    "lat": 50.85507965000005,
    "lon": 0.5917170100000249,
    "url": "https://rnli.org/find-my-nearest/lifeboat-stations/hastings-lifeboat-station",
    "sap_id": "5189",
    "lifesaving_region": "South East",
    "lifesaving_area": "13.0"
  },
  {
    "name": "Eastbourne",
    "county": "East Sussex",
    "region": "South East",
    "division": "South East",
    "country": "ENG",
    "station_type": "ALB",
    "lat": 50.79111862000008,
    "lon": 0.32804900000002135,
    "url": "https://rnli.org/find-my-nearest/lifeboat-stations/eastbourne-lifeboat-station",
    "sap_id": "5211",
    "lifesaving_region": "South East",
    "lifesaving_area": "14.0"
  },
  {
    "name": "Newhaven",
    "county": "East Sussex",
    "region": "South East",
    "division": "South East",
    "country": "ENG",
    "station_type": "ALB",
    "lat": 50.78853989000004,
    "lon": 0.05372200000005023,
    "url": "https://rnli.org/find-my-nearest/lifeboat-stations/newhaven-lifeboat-station",
    "sap_id": "5233",
    "lifesaving_region": "South East",
    "lifesaving_area": "14.0"
  },
  {
    "name": "Brighton",
    "county": "East Sussex",
    "region": "South East",
    "division": "South East",
    "country": "ENG",
    "station_type": "ILB",
    "lat": 50.81065774000007,
    "lon": -0.10384178299995028,
    "url": "https://rnli.org/find-my-nearest/lifeboat-stations/brighton-lifeboat-station",
    "sap_id": "5255",
    "lifesaving_region": "South East",
    "lifesaving_area": "14.0"
  },
  {
    "name": "Shoreham Harbour",
    "county": "West Sussex",
    "region": "South East",
    "division": "South East",
    "country": "ENG",
    "station_type": "ALB",
    "lat": 50.83036804000005,
    "lon": -0.24895099999997683,
    "url": "https://rnli.org/find-my-nearest/lifeboat-stations/shoreham-harbour-lifeboat-station",
    "sap_id": "5277",
    "lifesaving_region": "South East",
    "lifesaving_area": "14.0"
  },
  {
    "name": "Littlehampton",
    "county": "West Sussex",
    "region": "South East",
    "division": "South East",
    "country": "ENG",
    "station_type": "ILB",
    "lat": 50.808021550000035,
    "lon": -0.544544999999971,
    "url": "https://rnli.org/find-my-nearest/lifeboat-stations/littlehampton-lifeboat-station",
    "sap_id": "5299",
    "lifesaving_region": "South East",
    "lifesaving_area": "47.0"
  },
  {
    "name": "Selsey",
    "county": "West Sussex",
    "region": "South East",
    "division": "South East",
    "country": "ENG",
    "station_type": "ALB",
    "lat": 50.728204,
    "lon": -0.7799399999999537,
    "url": "https://rnli.org/find-my-nearest/lifeboat-stations/selsey-lifeboat-station",
    "sap_id": "5315",
    "lifesaving_region": "South East",
    "lifesaving_area": "47.0"
  },
  {
    "name": "Hayling Island",
    "county": "Hampshire",
    "region": "South East",
    "division": "Channel",
    "country": "ENG",
    "station_type": "ILB",
    "lat": 50.781711580000035,
    "lon": -0.9367679999999723,
    "url": "https://rnli.org/find-my-nearest/lifeboat-stations/hayling-island-lifeboat-station",
    "sap_id": "5320",
    "lifesaving_region": "South East",
    "lifesaving_area": "47.0"
  },
  {
    "name": "Portsmouth",
    "county": "Hampshire",
    "region": "South East",
    "division": "Channel",
    "country": "ENG",
    "station_type": "ILB",
    "lat": 50.795372,
    "lon": -1.029863,
    "url": "https://rnli.org/find-my-nearest/lifeboat-stations/portsmouth-lifeboat-station",
    "sap_id": "5337",
    "lifesaving_region": "South East",
    "lifesaving_area": "47.0"
  },
  {
    "name": "Calshot",
    "county": "Hampshire",
    "region": "South East",
    "division": "Channel",
    "country": "ENG",
    "station_type": "ILB",
    "lat": 50.820247650000056,
    "lon": -1.3083399499999473,
    "url": "https://rnli.org/find-my-nearest/lifeboat-stations/calshot-lifeboat-station",
    "sap_id": "5343",
    "lifesaving_region": "South East",
    "lifesaving_area": "15.0"
  },
  {
    "name": "Lymington",
    "county": "Hampshire",
    "region": "South East",
    "division": "Central",
    "country": "ENG",
    "station_type": "ILB",
    "lat": 50.75381088000006,
    "lon": -1.5292190299999788,
    "url": "https://rnli.org/find-my-nearest/lifeboat-stations/lymington-lifeboat-station",
    "sap_id": "5359",
    "lifesaving_region": "South East",
    "lifesaving_area": "16.0"
  },
  {
    "name": "Bembridge",
    "county": "Isle of Wight",
    "region": "South East",
    "division": "Channel",
    "country": "ENG",
    "station_type": "ALB",
    "lat": 50.68859482000005,
    "lon": -1.0724370499999623,
    "url": "https://rnli.org/find-my-nearest/lifeboat-stations/bembridge-lifeboat-station",
    "sap_id": "5471",
    "lifesaving_region": "South East",
    "lifesaving_area": "15.0"
  },
  {
    "name": "Cowes",
    "county": "Isle of Wight",
    "region": "South East",
    "division": "Channel",
    "country": "ENG",
    "station_type": "ILB",
    "lat": 50.76473236000004,
    "lon": -1.2982859599999301,
    "url": "https://rnli.org/find-my-nearest/lifeboat-stations/cowes-lifeboat-station",
    "sap_id": "5485",
    "lifesaving_region": "South East",
    "lifesaving_area": "15.0"
  },
  {
    "name": "Yarmouth (IOW)",
    "county": "Isle of Wight",
    "region": "South East",
    "division": "Channel",
    "country": "ENG",
    "station_type": "ALB",
    "lat": 50.70615387000004,
    "lon": -1.5004750499999773,
    "url": "https://rnli.org/find-my-nearest/lifeboat-stations/yarmouth-lifeboat-station",
    "sap_id": "5492",
    "lifesaving_region": "South East",
    "lifesaving_area": "15.0"
  },
  {
    "name": "Mudeford",
    "county": "Dorset",
    "region": "South East",
    "division": "Channel",
    "country": "ENG",
    "station_type": "ILB",
    "lat": 50.724285130000055,
    "lon": -1.742266059999963,
    "url": "https://rnli.org/find-my-nearest/lifeboat-stations/mudeford-lifeboat-station",
    "sap_id": "6506",
    "lifesaving_region": "South East",
    "lifesaving_area": "16.0"
  },
  {
    "name": "Poole",
    "county": "Dorset",
    "region": "South East",
    "division": "Channel",
    "country": "ENG",
    "station_type": "ILB",
    "lat": 50.71268845000003,
    "lon": -1.9919749499999284,
    "url": "https://rnli.org/find-my-nearest/lifeboat-stations/poole-lifeboat-station",
    "sap_id": "6515",
    "lifesaving_region": "South East",
    "lifesaving_area": "16.0"
  },
  {
    "name": "Swanage",
    "county": "Dorset",
    "region": "South East",
    "division": "Channel",
    "country": "ENG",
    "station_type": "ALB",
    "lat": 50.60729218000006,
    "lon": -1.9466600399999265,
    "url": "https://rnli.org/find-my-nearest/lifeboat-stations/swanage-lifeboat-station",
    "sap_id": "6522",
    "lifesaving_region": "South East",
    "lifesaving_area": "16.0"
  },
  {
    "name": "Weymouth",
    "county": "Dorset",
    "region": "South West",
    "division": "Channel",
    "country": "ENG",
    "station_type": "ALB",
    "lat": 50.60724258000005,
    "lon": -2.450158119999969,
    "url": "https://rnli.org/find-my-nearest/lifeboat-stations/weymouth-lifeboat-station",
    "sap_id": "6544",
    "lifesaving_region": "South West",
    "lifesaving_area": "19.0"
  },
  {
    "name": "Lyme Regis",
    "county": "Dorset",
    "region": "South West",
    "division": "Central",
    "country": "ENG",
    "station_type": "ILB",
    "lat": 50.72043991000004,
    "lon": -2.939017059999969,
    "url": "https://rnli.org/find-my-nearest/lifeboat-stations/lyme-regis-lifeboat-station",
    "sap_id": "6565",
    "lifesaving_region": "South West",
    "lifesaving_area": "19.0"
  },
  {
    "name": "Exmouth",
    "county": "Devon",
    "region": "South West",
    "division": "Channel",
    "country": "ENG",
    "station_type": "ALB",
    "lat": 50.61104584000003,
    "lon": -3.3989760899999624,
    "url": "https://rnli.org/find-my-nearest/lifeboat-stations/exmouth-lifeboat-station",
    "sap_id": "6586",
    "lifesaving_region": "South West",
    "lifesaving_area": "19.0"
  },
  {
    "name": "Teignmouth",
    "county": "Devon",
    "region": "South West",
    "division": "Channel",
    "country": "ENG",
    "station_type": "ILB",
    "lat": 50.542163850000065,
    "lon": -3.4978260999999407,
    "url": "https://rnli.org/find-my-nearest/lifeboat-stations/teignmouth-lifeboat-station",
    "sap_id": "6598",
    "lifesaving_region": "South West",
    "lifesaving_area": "19.0"
  },
  {
    "name": "Torbay",
    "county": "Devon",
    "region": "South West",
    "division": "Channel",
    "country": "ENG",
    "station_type": "ALB",
    "lat": 50.39915466000008,
    "lon": -3.50548600999997,
    "url": "https://rnli.org/find-my-nearest/lifeboat-stations/torbay-lifeboat-station",
    "sap_id": "6609",
    "lifesaving_region": "South West",
    "lifesaving_area": "19.0"
  },
  {
    "name": "Dart",
    "county": "Devon",
    "region": "South West",
    "division": "Channel",
    "country": "ENG",
    "station_type": "ILB",
    "lat": 50.354743960000064,
    "lon": -3.578016039999966,
    "url": "https://rnli.org/find-my-nearest/lifeboat-stations/dart-lifeboat-station",
    "sap_id": "6613",
    "lifesaving_region": "South West",
    "lifesaving_area": "19.0"
  },
  {
    "name": "Salcombe",
    "county": "Devon",
    "region": "South West",
    "division": "South West",
    "country": "ENG",
    "station_type": "ALB",
    "lat": 50.238662720000036,
    "lon": -3.7666580699999486,
    "url": "https://rnli.org/find-my-nearest/lifeboat-stations/salcombe-lifeboat-station",
    "sap_id": "6617",
    "lifesaving_region": "South West",
    "lifesaving_area": "19.0"
  },
  {
    "name": "St Peter Port",
    "county": "Channel Isles",
    "region": "South West",
    "division": "Channel",
    "country": "CHI",
    "station_type": "ALB",
    "lat": 49.45796585000005,
    "lon": -2.5298619299999245,
    "url": "https://rnli.org/find-my-nearest/lifeboat-stations/st-peter-port-lifeboat-station",
    "sap_id": "6625",
    "lifesaving_region": "South West",
    "lifesaving_area": "17.0"
  },
  {
    "name": "St Catherine",
    "county": "Channel Isles",
    "region": "South West",
    "division": "Channel",
    "country": "CHI",
    "station_type": "ILB",
    "lat": 49.21793365000008,
    "lon": -2.030172109999967,
    "url": "https://rnli.org/find-my-nearest/lifeboat-stations/st-catherine-lifeboat-station",
    "sap_id": "6643",
    "lifesaving_region": "South West",
    "lifesaving_area": "17.0"
  },
  {
    "name": "St Helier",
    "county": "Channel Isles",
    "region": "South West",
    "division": "Channel",
    "country": "CHI",
    "station_type": "ALB",
    "lat": 49.180671690000054,
    "lon": -2.1130340099999785,
    "url": "https://rnli.org/find-my-nearest/lifeboat-stations/st-helier-lifeboat-station",
    "sap_id": "6661",
    "lifesaving_region": "South West",
    "lifesaving_area": "17.0"
  },
  {
    "name": "Alderney",
    "county": "Channel Isles",
    "region": "South West",
    "division": "Channel",
    "country": "CHI",
    "station_type": "ALB",
    "lat": 49.72409821000008,
    "lon": -2.2001299899999367,
    "url": "https://rnli.org/find-my-nearest/lifeboat-stations/alderney-lifeboat-station",
    "sap_id": "6678",
    "lifesaving_region": "South West",
    "lifesaving_area": "17.0"
  },
  {
    "name": "Plymouth",
    "county": "Devon",
    "region": "South West",
    "division": "South West",
    "country": "ENG",
    "station_type": "ALB",
    "lat": 50.36304092000006,
    "lon": -4.150382039999954,
    "url": "https://rnli.org/find-my-nearest/lifeboat-stations/plymouth-lifeboat-station",
    "sap_id": "6716",
    "lifesaving_region": "South West",
    "lifesaving_area": "19.0"
  },
  {
    "name": "Looe",
    "county": "Cornwall",
    "region": "South West",
    "division": "South West",
    "country": "ENG",
    "station_type": "ILB",
    "lat": 50.35197067000007,
    "lon": -4.453149799999949,
    "url": "https://rnli.org/find-my-nearest/lifeboat-stations/looe-lifeboat-station",
    "sap_id": "6725",
    "lifesaving_region": "South West",
    "lifesaving_area": "20.0"
  },
  {
    "name": "Fowey",
    "county": "Cornwall",
    "region": "South West",
    "division": "South West",
    "country": "ENG",
    "station_type": "ALB",
    "lat": 50.33872604000004,
    "lon": -4.632342819999963,
    "url": "https://rnli.org/find-my-nearest/lifeboat-stations/fowey-lifeboat-station",
    "sap_id": "6738",
    "lifesaving_region": "South West",
    "lifesaving_area": "20.0"
  },
  {
    "name": "Falmouth",
    "county": "Cornwall",
    "region": "South West",
    "division": "South West",
    "country": "ENG",
    "station_type": "ALB",
    "lat": 50.15130615000004,
    "lon": -5.05911397999995,
    "url": "https://rnli.org/find-my-nearest/lifeboat-stations/falmouth-lifeboat-station",
    "sap_id": "6750",
    "lifesaving_region": "South West",
    "lifesaving_area": "21.0"
  },
  {
    "name": "The Lizard",
    "county": "Cornwall",
    "region": "South West",
    "division": "South West",
    "country": "ENG",
    "station_type": "ALB",
    "lat": 49.969511830000044,
    "lon": -5.187045009999963,
    "url": "https://rnli.org/find-my-nearest/lifeboat-stations/the-lizard-lifeboat-station",
    "sap_id": "6794",
    "lifesaving_region": "South West",
    "lifesaving_area": "21.0"
  },
  {
    "name": "Penlee",
    "county": "Cornwall",
    "region": "South West",
    "division": "South West",
    "country": "ENG",
    "station_type": "ALB",
    "lat": 50.103931430000046,
    "lon": -5.548723219999943,
    "url": "https://rnli.org/find-my-nearest/lifeboat-stations/penlee-lifeboat-station",
    "sap_id": "6816",
    "lifesaving_region": "South West",
    "lifesaving_area": "21.0"
  },
  {
    "name": "St Mary's",
    "county": "Cornwall",
    "region": "South West",
    "division": "South West",
    "country": "ENG",
    "station_type": "ALB",
    "lat": 49.91685867000007,
    "lon": -6.311666969999976,
    "url": "https://rnli.org/find-my-nearest/lifeboat-stations/st-marys-lifeboat-station",
    "sap_id": "6835",
    "lifesaving_region": "South West",
    "lifesaving_area": "21.0"
  },
  {
    "name": "Sennen Cove",
    "county": "Cornwall",
    "region": "South West",
    "division": "South West",
    "country": "ENG",
    "station_type": "ALB",
    "lat": 50.07793045000005,
    "lon": -5.703701019999926,
    "url": "https://rnli.org/find-my-nearest/lifeboat-stations/sennen-cove-lifeboat-station",
    "sap_id": "7601",
    "lifesaving_region": "South West",
    "lifesaving_area": "21.0"
  },
  {
    "name": "St Ives",
    "county": "Cornwall",
    "region": "South West",
    "division": "South West",
    "country": "ENG",
    "station_type": "ALB",
    "lat": 50.21273804000003,
    "lon": -5.4795279499999765,
    "url": "https://rnli.org/find-my-nearest/lifeboat-stations/st-ives-lifeboat-station",
    "sap_id": "7613",
    "lifesaving_region": "South West",
    "lifesaving_area": "21.0"
  },
  {
    "name": "St Agnes",
    "county": "Cornwall",
    "region": "South West",
    "division": "South West",
    "country": "ENG",
    "station_type": "ILB",
    "lat": 50.31923676000008,
    "lon": -5.201832769999953,
    "url": "https://rnli.org/find-my-nearest/lifeboat-stations/st-agnes-lifeboat-station",
    "sap_id": "7625",
    "lifesaving_region": "South West",
    "lifesaving_area": "20.0"
  },
  {
    "name": "Newquay (Cornwall)",
    "county": "Cornwall",
    "region": "South West",
    "division": "South West",
    "country": "ENG",
    "station_type": "ILB",
    "lat": 50.4164772,
    "lon": -5.087292189999971,
    "url": "https://rnli.org/find-my-nearest/lifeboat-stations/newquay-lifeboat-station",
    "sap_id": "7637",
    "lifesaving_region": "South West",
    "lifesaving_area": "20.0"
  },
  {
    "name": "Padstow",
    "county": "Cornwall",
    "region": "South West",
    "division": "South West",
    "country": "ENG",
    "station_type": "ALB",
    "lat": 50.5490303,
    "lon": -5.0217309,
    "url": "https://rnli.org/find-my-nearest/lifeboat-stations/padstow-lifeboat-station",
    "sap_id": "7659",
    "lifesaving_region": "South West",
    "lifesaving_area": "20.0"
  },
  {
    "name": "Rock",
    "county": "Cornwall",
    "region": "South West",
    "division": "South West",
    "country": "ENG",
    "station_type": "ILB",
    "lat": 50.5446167000001,
    "lon": -4.924492839999971,
    "url": "https://rnli.org/find-my-nearest/lifeboat-stations/rock-lifeboat-station",
    "sap_id": "7700",
    "lifesaving_region": "South West",
    "lifesaving_area": "20.0"
  },
  {
    "name": "Port Isaac",
    "county": "Cornwall",
    "region": "South West",
    "division": "South West",
    "country": "ENG",
    "station_type": "ILB",
    "lat": 50.592006680000054,
    "lon": -4.8319931,
    "url": "https://rnli.org/find-my-nearest/lifeboat-stations/port-isaac-lifeboat-station",
    "sap_id": "7771",
    "lifesaving_region": "South West",
    "lifesaving_area": "24.0"
  },
  {
    "name": "Bude",
    "county": "Cornwall",
    "region": "South West",
    "division": "South West",
    "country": "ENG",
    "station_type": "ILB",
    "lat": 50.830734250000035,
    "lon": -4.550083159999929,
    "url": "https://rnli.org/find-my-nearest/lifeboat-stations/bude-lifeboat-station",
    "sap_id": "7793",
    "lifesaving_region": "South West",
    "lifesaving_area": "24.0"
  },
  {
    "name": "Clovelly",
    "county": "Devon",
    "region": "South West",
    "division": "South West",
    "country": "ENG",
    "station_type": "ILB",
    "lat": 50.99832535000007,
    "lon": -4.3975682299999335,
    "url": "https://rnli.org/find-my-nearest/lifeboat-stations/clovelly-lifeboat-station",
    "sap_id": "7815",
    "lifesaving_region": "South West",
    "lifesaving_area": "24.0"
  },
  {
    "name": "Appledore",
    "county": "Devon",
    "region": "South West",
    "division": "South West",
    "country": "ENG",
    "station_type": "ALB",
    "lat": 51.05700895000007,
    "lon": -4.199777597999969,
    "url": "https://rnli.org/find-my-nearest/lifeboat-stations/appledore-lifeboat-station",
    "sap_id": "7836",
    "lifesaving_region": "South West",
    "lifesaving_area": "24.0"
  },
  {
    "name": "Ilfracombe",
    "county": "Devon",
    "region": "South West",
    "division": "South West",
    "country": "ENG",
    "station_type": "ALB",
    "lat": 51.20965958000005,
    "lon": -4.116115089999937,
    "url": "https://rnli.org/find-my-nearest/lifeboat-stations/ilfracombe-lifeboat-station",
    "sap_id": "7860",
    "lifesaving_region": "South West",
    "lifesaving_area": "24.0"
  },
  {
    "name": "Minehead",
    "county": "Somerset",
    "region": "South West",
    "division": "Wales South & Severn",
    "country": "ENG",
    "station_type": "ILB",
    "lat": 51.21402359000007,
    "lon": -3.475306029999956,
    "url": "https://rnli.org/find-my-nearest/lifeboat-stations/minehead-lifeboat-station",
    "sap_id": "7901",
    "lifesaving_region": "South West",
    "lifesaving_area": "24.0"
  },
  {
    "name": "Burnham-on-Sea",
    "county": "Somerset",
    "region": "South West",
    "division": "Wales South & Severn",
    "country": "ENG",
    "station_type": "ILB",
    "lat": 51.233718870000075,
    "lon": -2.997200009999972,
    "url": "https://rnli.org/find-my-nearest/lifeboat-stations/burnham-on-sea-lifeboat-station",
    "sap_id": "7918",
    "lifesaving_region": "South West",
    "lifesaving_area": "18.0"
  },
  {
    "name": "Weston-Super-Mare",
    "county": "Somerset",
    "region": "South West",
    "division": "Wales South & Severn",
    "country": "ENG",
    "station_type": "ILB",
    "lat": 51.352252960000044,
    "lon": -2.9881849299999317,
    "url": "https://rnli.org/find-my-nearest/lifeboat-stations/weston-super-mare-lifeboat-station",
    "sap_id": "7923",
    "lifesaving_region": "South West",
    "lifesaving_area": "18.0"
  },
  {
    "name": "Portishead",
    "county": "Somerset",
    "region": "South West",
    "division": "Wales South & Severn",
    "country": "ENG",
    "station_type": "ILB",
    "lat": 51.493892,
    "lon": -2.756968,
    "url": "https://rnli.org/find-my-nearest/lifeboat-stations/portishead-lifeboat-station",
    "sap_id": "7950",
    "lifesaving_region": "South West",
    "lifesaving_area": "18.0"
  },
  {
    "name": "Penarth",
    "county": "South Glamorgan",
    "region": "WalesAndWest",
    "division": "Wales South & Severn",
    "country": "WAL",
    "station_type": "ILB",
    "lat": 51.43255997000006,
    "lon": -3.1690189799999757,
    "url": "https://rnli.org/find-my-nearest/lifeboat-stations/penarth-lifeboat-station",
    "sap_id": "8085",
    "lifesaving_region": "Wales&West",
    "lifesaving_area": "25.0"
  },
  {
    "name": "Barry Dock",
    "county": "South Glamorgan",
    "region": "WalesAndWest",
    "division": "Wales South & Severn",
    "country": "WAL",
    "station_type": "ALB",
    "lat": 51.393150330000026,
    "lon": -3.261497019999979,
    "url": "https://rnli.org/find-my-nearest/lifeboat-stations/barry-dock-lifeboat-station",
    "sap_id": "8102",
    "lifesaving_region": "Wales&West",
    "lifesaving_area": "25.0"
  },
  {
    "name": "Porthcawl",
    "county": "Mid Glamorgan",
    "region": "WalesAndWest",
    "division": "Wales South & Severn",
    "country": "WAL",
    "station_type": "ILB",
    "lat": 51.474151610000035,
    "lon": -3.7020220799999493,
    "url": "https://rnli.org/find-my-nearest/lifeboat-stations/porthcawl-lifeboat-station",
    "sap_id": "8146",
    "lifesaving_region": "Wales&West",
    "lifesaving_area": "25.0"
  },
  {
    "name": "Port Talbot",
    "county": "West Glamorgan",
    "region": "WalesAndWest",
    "division": "Wales South & Severn",
    "country": "WAL",
    "station_type": "ILB",
    "lat": 51.59354401000007,
    "lon": -3.8168559099999584,
    "url": "https://rnli.org/find-my-nearest/lifeboat-stations/port-talbot-lifeboat-station",
    "sap_id": "8168",
    "lifesaving_region": "Wales&West",
    "lifesaving_area": "25.0"
  },
  {
    "name": "The Mumbles",
    "county": "West Glamorgan",
    "region": "WalesAndWest",
    "division": "Wales South & Severn",
    "country": "WAL",
    "station_type": "ALB",
    "lat": 51.56985474000004,
    "lon": -3.9741749799999297,
    "url": "https://rnli.org/find-my-nearest/lifeboat-stations/the-mumbles-lifeboat-station",
    "sap_id": "8180",
    "lifesaving_region": "Wales&West",
    "lifesaving_area": "25.0"
  },
  {
    "name": "Horton and Port Eynon",
    "county": "West Glamorgan",
    "region": "WalesAndWest",
    "division": "Wales South & Severn",
    "country": "WAL",
    "station_type": "ILB",
    "lat": 51.5483017000001,
    "lon": -4.201100829999973,
    "url": "https://rnli.org/find-my-nearest/lifeboat-stations/horton-and-port-eynon-lifeboat-station",
    "sap_id": "8212",
    "lifesaving_region": "Wales&West",
    "lifesaving_area": "25.0"
  },
  {
    "name": "Burry Port",
    "county": "Dyfed",
    "region": "WalesAndWest",
    "division": "Wales South & Severn",
    "country": "WAL",
    "station_type": "ILB",
    "lat": 51.67973328000005,
    "lon": -4.24847793999993,
    "url": "https://rnli.org/find-my-nearest/lifeboat-stations/burry-port-lifeboat-station",
    "sap_id": "8226",
    "lifesaving_region": "Wales&West",
    "lifesaving_area": "25.0"
  },
  {
    "name": "Tenby",
    "county": "Dyfed",
    "region": "WalesAndWest",
    "division": "Wales South & Severn",
    "country": "WAL",
    "station_type": "ALB",
    "lat": 51.67302322000006,
    "lon": -4.693817139999965,
    "url": "https://rnli.org/find-my-nearest/lifeboat-stations/tenby-lifeboat-station",
    "sap_id": "8235",
    "lifesaving_region": "Wales&West",
    "lifesaving_area": "26.0"
  },
  {
    "name": "Angle",
    "county": "Dyfed",
    "region": "WalesAndWest",
    "division": "Wales South & Severn",
    "country": "WAL",
    "station_type": "ALB",
    "lat": 51.68939209000007,
    "lon": -5.079062939999972,
    "url": "https://rnli.org/find-my-nearest/lifeboat-stations/angle-lifeboat-station",
    "sap_id": "8257",
    "lifesaving_region": "Wales&West",
    "lifesaving_area": "26.0"
  },
  {
    "name": "Little and Broad Haven",
    "county": "Dyfed",
    "region": "WalesAndWest",
    "division": "Wales South & Severn",
    "country": "WAL",
    "station_type": "ILB",
    "lat": 51.77315521000003,
    "lon": -5.107149119999974,
    "url": "https://rnli.org/find-my-nearest/lifeboat-stations/little-and-broad-haven-lifeboat-station",
    "sap_id": "8279",
    "lifesaving_region": "Wales&West",
    "lifesaving_area": "26.0"
  },
  {
    "name": "St Davids",
    "county": "Dyfed",
    "region": "WalesAndWest",
    "division": "Wales South & Severn",
    "country": "WAL",
    "station_type": "ALB",
    "lat": 51.87858582000007,
    "lon": -5.3090519899999435,
    "url": "https://rnli.org/find-my-nearest/lifeboat-stations/st-davids-lifeboat-station",
    "sap_id": "8291",
    "lifesaving_region": "Wales&West",
    "lifesaving_area": "26.0"
  },
  {
    "name": "Fishguard",
    "county": "Dyfed",
    "region": "WalesAndWest",
    "division": "Wales South & Severn",
    "country": "WAL",
    "station_type": "ALB",
    "lat": 52.013298030000044,
    "lon": -4.984101769999938,
    "url": "https://rnli.org/find-my-nearest/lifeboat-stations/fishguard-lifeboat-station",
    "sap_id": "8313",
    "lifesaving_region": "Wales&West",
    "lifesaving_area": "26.0"
  },
  {
    "name": "Cardigan",
    "county": "Dyfed",
    "region": "WalesAndWest",
    "division": "Wales South & Severn",
    "country": "WAL",
    "station_type": "ILB",
    "lat": 52.10474014000005,
    "lon": -4.699532989999966,
    "url": "https://rnli.org/find-my-nearest/lifeboat-stations/cardigan-lifeboat-station",
    "sap_id": "8317",
    "lifesaving_region": "Wales&West",
    "lifesaving_area": "26.0"
  },
  {
    "name": "New Quay (Ceredigion)",
    "county": "Dyfed",
    "region": "WalesAndWest",
    "division": "Wales South & Severn",
    "country": "WAL",
    "station_type": "ALB",
    "lat": 52.21351242000003,
    "lon": -4.357618809999963,
    "url": "https://rnli.org/find-my-nearest/lifeboat-stations/new-quay-lifeboat-station",
    "sap_id": "8325",
    "lifesaving_region": "Wales&West",
    "lifesaving_area": "27.0"
  },
  {
    "name": "Aberystwyth",
    "county": "Dyfed",
    "region": "WalesAndWest",
    "division": "Wales South & Severn",
    "country": "WAL",
    "station_type": "ILB",
    "lat": 52.40875244000006,
    "lon": -4.088925839999945,
    "url": "https://rnli.org/find-my-nearest/lifeboat-stations/aberystwyth-lifeboat-station",
    "sap_id": "8358",
    "lifesaving_region": "Wales&West",
    "lifesaving_area": "27.0"
  },
  {
    "name": "Borth",
    "county": "Dyfed",
    "region": "WalesAndWest",
    "division": "Wales South & Severn",
    "country": "WAL",
    "station_type": "ILB",
    "lat": 52.48120117000008,
    "lon": -4.051402089999954,
    "url": "https://rnli.org/find-my-nearest/lifeboat-stations/borth-lifeboat-station",
    "sap_id": "8379",
    "lifesaving_region": "Wales&West",
    "lifesaving_area": "27.0"
  },
  {
    "name": "Aberdovey",
    "county": "Gwynedd",
    "region": "WalesAndWest",
    "division": "Wales South & Severn",
    "country": "WAL",
    "station_type": "ILB",
    "lat": 52.54315948000004,
    "lon": -4.0456619299999375,
    "url": "https://rnli.org/find-my-nearest/lifeboat-stations/aberdovey-lifeboat-station",
    "sap_id": "8390",
    "lifesaving_region": "Wales&West",
    "lifesaving_area": "27.0"
  },
  {
    "name": "Barmouth",
    "county": "Gwynedd",
    "region": "WalesAndWest",
    "division": "Wales & North West",
    "country": "WAL",
    "station_type": "ALB",
    "lat": 52.7209549,
    "lon": -4.0556821799999625,
    "url": "https://rnli.org/find-my-nearest/lifeboat-stations/barmouth-lifeboat-station",
    "sap_id": "8414",
    "lifesaving_region": "Wales&West",
    "lifesaving_area": "27.0"
  },
  {
    "name": "Criccieth",
    "county": "Gwynedd",
    "region": "WalesAndWest",
    "division": "Wales & North West",
    "country": "WAL",
    "station_type": "ILB",
    "lat": 52.918064120000054,
    "lon": -4.230478759999926,
    "url": "https://rnli.org/find-my-nearest/lifeboat-stations/criccieth-lifeboat-station",
    "sap_id": "8420",
    "lifesaving_region": "Wales&West",
    "lifesaving_area": "27.0"
  },
  {
    "name": "Pwllheli",
    "county": "Gwynedd",
    "region": "WalesAndWest",
    "division": "Wales & North West",
    "country": "WAL",
    "station_type": "ALB",
    "lat": 52.882762910000054,
    "lon": -4.402243139999939,
    "url": "https://rnli.org/find-my-nearest/lifeboat-stations/pwllheli-lifeboat-station",
    "sap_id": "8442",
    "lifesaving_region": "Wales&West",
    "lifesaving_area": "29.0"
  },
  {
    "name": "Abersoch",
    "county": "Gwynedd",
    "region": "WalesAndWest",
    "division": "Wales South & Severn",
    "country": "WAL",
    "station_type": "ILB",
    "lat": 52.82647705000005,
    "lon": -4.504443169999945,
    "url": "https://rnli.org/find-my-nearest/lifeboat-stations/abersoch-lifeboat-station",
    "sap_id": "8464",
    "lifesaving_region": "Wales&West",
    "lifesaving_area": "29.0"
  },
  {
    "name": "Porthdinllaen",
    "county": "Gwynedd",
    "region": "WalesAndWest",
    "division": "Wales & North West",
    "country": "WAL",
    "station_type": "ALB",
    "lat": 52.94698715000004,
    "lon": -4.564723019999974,
    "url": "https://rnli.org/find-my-nearest/lifeboat-stations/porthdinllaen-lifeboat-station",
    "sap_id": "8486",
    "lifesaving_region": "Wales&West",
    "lifesaving_area": "27.0"
  },
  {
    "name": "Trearddur Bay",
    "county": "Gwynedd",
    "region": "WalesAndWest",
    "division": "Wales & North West",
    "country": "WAL",
    "station_type": "ILB",
    "lat": 53.28065491000007,
    "lon": -4.619761939999933,
    "url": "https://rnli.org/find-my-nearest/lifeboat-stations/trearddur-bay-lifeboat-station",
    "sap_id": "8513",
    "lifesaving_region": "Wales&West",
    "lifesaving_area": "29.0"
  },
  {
    "name": "Holyhead",
    "county": "Gwynedd",
    "region": "WalesAndWest",
    "division": "Wales & North West",
    "country": "WAL",
    "station_type": "ALB",
    "lat": 53.3180275,
    "lon": -4.641836169999976,
    "url": "https://rnli.org/find-my-nearest/lifeboat-stations/holyhead-lifeboat-station",
    "sap_id": "8525",
    "lifesaving_region": "Wales&West",
    "lifesaving_area": "29.0"
  },
  {
    "name": "Moelfre",
    "county": "Gwynedd",
    "region": "WalesAndWest",
    "division": "Wales & North West",
    "country": "WAL",
    "station_type": "ALB",
    "lat": 53.354663850000065,
    "lon": -4.231956959999934,
    "url": "https://rnli.org/find-my-nearest/lifeboat-stations/moelfre-lifeboat-station",
    "sap_id": "8537",
    "lifesaving_region": "Wales&West",
    "lifesaving_area": "29.0"
  },
  {
    "name": "Beaumaris",
    "county": "Gwynedd",
    "region": "WalesAndWest",
    "division": "Wales & North West",
    "country": "WAL",
    "station_type": "ILB",
    "lat": 53.26221466000004,
    "lon": -4.090854169999943,
    "url": "https://rnli.org/find-my-nearest/lifeboat-stations/beaumaris-lifeboat-station",
    "sap_id": "8559",
    "lifesaving_region": "Wales&West",
    "lifesaving_area": "29.0"
  },
  {
    "name": "Conwy",
    "county": "Clwyd",
    "region": "WalesAndWest",
    "division": "Wales & North West",
    "country": "WAL",
    "station_type": "ILB",
    "lat": 53.28094101000005,
    "lon": -3.826385979999941,
    "url": "https://rnli.org/find-my-nearest/lifeboat-stations/conwy-lifeboat-station",
    "sap_id": "8560",
    "lifesaving_region": "Wales&West",
    "lifesaving_area": "29.0"
  },
  {
    "name": "Llandudno",
    "county": "Clwyd",
    "region": "WalesAndWest",
    "division": "Wales & North West",
    "country": "WAL",
    "station_type": "ALB",
    "lat": 53.3228833000001,
    "lon": -3.80225,
    "url": "https://rnli.org/find-my-nearest/lifeboat-stations/llandudno-lifeboat-station",
    "sap_id": "8571",
    "lifesaving_region": "Wales&West",
    "lifesaving_area": "30.0"
  },
  {
    "name": "Rhyl",
    "county": "Clwyd",
    "region": "WalesAndWest",
    "division": "Wales & North West",
    "country": "WAL",
    "station_type": "ALB",
    "lat": 53.325050350000026,
    "lon": -3.488886119999961,
    "url": "https://rnli.org/find-my-nearest/lifeboat-stations/rhyl-lifeboat-station",
    "sap_id": "8592",
    "lifesaving_region": "Wales&West",
    "lifesaving_area": "30.0"
  },
  {
    "name": "Flint",
    "county": "Clwyd",
    "region": "WalesAndWest",
    "division": "Wales & North West",
    "country": "WAL",
    "station_type": "ILB",
    "lat": 53.25050735000008,
    "lon": -3.1284699399999454,
    "url": "https://rnli.org/find-my-nearest/lifeboat-stations/flint-lifeboat-station",
    "sap_id": "8666",
    "lifesaving_region": "Wales&West",
    "lifesaving_area": "30.0"
  },
  {
    "name": "Clogher Head",
    "county": "Louth",
    "region": "Ireland",
    "division": "Central",
    "country": "IRL",
    "station_type": "ALB",
    "lat": 53.78845215000007,
    "lon": -6.235334869999974,
    "url": "https://rnli.org/find-my-nearest/lifeboat-stations/clogher-head-lifeboat-station",
    "sap_id": "9118",
    "lifesaving_region": "Ireland",
    "lifesaving_area": "36.0"
  },
  {
    "name": "Skerries",
    "county": "Dublin",
    "region": "Ireland",
    "division": "Central",
    "country": "IRL",
    "station_type": "ILB",
    "lat": 53.58582687000006,
    "lon": -6.105651859999966,
    "url": "https://rnli.org/find-my-nearest/lifeboat-stations/skerries-lifeboat-station",
    "sap_id": "9129",
    "lifesaving_region": "Ireland",
    "lifesaving_area": "36.0"
  },
  {
    "name": "Howth",
    "county": "Dublin",
    "region": "Ireland",
    "division": "Central",
    "country": "IRL",
    "station_type": "ALB",
    "lat": 53.389606480000054,
    "lon": -6.06827020999998,
    "url": "https://rnli.org/find-my-nearest/lifeboat-stations/howth-lifeboat-station",
    "sap_id": "9136",
    "lifesaving_region": "Ireland",
    "lifesaving_area": "36.0"
  },
  {
    "name": "Dun Laoghaire",
    "county": "Dublin",
    "region": "Ireland",
    "division": "Central",
    "country": "IRL",
    "station_type": "ALB",
    "lat": 53.29369736000007,
    "lon": -6.131042,
    "url": "https://rnli.org/find-my-nearest/lifeboat-stations/dun-laoghaire-lifeboat-station",
    "sap_id": "9154",
    "lifesaving_region": "Ireland",
    "lifesaving_area": "37.0"
  },
  {
    "name": "Wicklow",
    "county": "Wicklow",
    "region": "Ireland",
    "division": "Central",
    "country": "IRL",
    "station_type": "ALB",
    "lat": 52.98164368000005,
    "lon": -6.032724859999973,
    "url": "https://rnli.org/find-my-nearest/lifeboat-stations/wicklow-lifeboat-station",
    "sap_id": "9172",
    "lifesaving_region": "Ireland",
    "lifesaving_area": "37.0"
  },
  {
    "name": "Arklow",
    "county": "Wicklow",
    "region": "Ireland",
    "division": "Central",
    "country": "IRL",
    "station_type": "ALB",
    "lat": 52.791954040000064,
    "lon": -6.145061969999972,
    "url": "https://rnli.org/find-my-nearest/lifeboat-stations/arklow-lifeboat-station",
    "sap_id": "9190",
    "lifesaving_region": "Ireland",
    "lifesaving_area": "37.0"
  },
  {
    "name": "Courtown",
    "county": "Wexford",
    "region": "Ireland",
    "division": "Central",
    "country": "IRL",
    "station_type": "ILB",
    "lat": 52.64348984000003,
    "lon": -6.225825789999931,
    "url": "https://rnli.org/find-my-nearest/lifeboat-stations/courtown-lifeboat-station",
    "sap_id": "9200",
    "lifesaving_region": "Ireland",
    "lifesaving_area": "37.0"
  },
  {
    "name": "Wexford",
    "county": "Wexford",
    "region": "Ireland",
    "division": "Central",
    "country": "IRL",
    "station_type": "ILB",
    "lat": 52.34187317000004,
    "lon": -6.461699009999961,
    "url": "https://rnli.org/find-my-nearest/lifeboat-stations/wexford-lifeboat-station",
    "sap_id": "9202",
    "lifesaving_region": "Ireland",
    "lifesaving_area": "45.0"
  },
  {
    "name": "Rosslare Harbour",
    "county": "Wexford",
    "region": "Ireland",
    "division": "Central",
    "country": "IRL",
    "station_type": "ALB",
    "lat": 52.25397873000003,
    "lon": -6.33573722999995,
    "url": "https://rnli.org/find-my-nearest/lifeboat-stations/rosslare-harbour-lifeboat-station",
    "sap_id": "9203",
    "lifesaving_region": "Ireland",
    "lifesaving_area": "45.0"
  },
  {
    "name": "Kilmore Quay",
    "county": "Wexford",
    "region": "Ireland",
    "division": "South",
    "country": "IRL",
    "station_type": "ALB",
    "lat": 52.173278810000056,
    "lon": -6.589717869999959,
    "url": "https://rnli.org/find-my-nearest/lifeboat-stations/kilmore-quay-lifeboat-station",
    "sap_id": "9225",
    "lifesaving_region": "Ireland",
    "lifesaving_area": "45.0"
  },
  {
    "name": "Fethard",
    "county": "Wexford",
    "region": "Ireland",
    "division": "South",
    "country": "IRL",
    "station_type": "ILB",
    "lat": 52.187755580000044,
    "lon": -6.838198189999957,
    "url": "https://rnli.org/find-my-nearest/lifeboat-stations/fethard-lifeboat-station",
    "sap_id": "9234",
    "lifesaving_region": "Ireland",
    "lifesaving_area": "45.0"
  },
  {
    "name": "Dunmore East",
    "county": "Waterford",
    "region": "Ireland",
    "division": "South",
    "country": "IRL",
    "station_type": "ALB",
    "lat": 52.147056580000026,
    "lon": -6.992529869999942,
    "url": "https://rnli.org/find-my-nearest/lifeboat-stations/dunmore-east-lifeboat-station",
    "sap_id": "9237",
    "lifesaving_region": "Ireland",
    "lifesaving_area": "45.0"
  },
  {
    "name": "Tramore",
    "county": "Waterford",
    "region": "Ireland",
    "division": "South",
    "country": "IRL",
    "station_type": "ILB",
    "lat": 52.15410995000008,
    "lon": -7.1605730099999505,
    "url": "https://rnli.org/find-my-nearest/lifeboat-stations/tramore-lifeboat-station",
    "sap_id": "9259",
    "lifesaving_region": "Ireland",
    "lifesaving_area": "45.0"
  },
  {
    "name": "Helvick Head",
    "county": "Waterford",
    "region": "Ireland",
    "division": "South",
    "country": "IRL",
    "station_type": "ILB",
    "lat": 52.054611210000076,
    "lon": -7.544072149999977,
    "url": "https://rnli.org/find-my-nearest/lifeboat-stations/helvick-head-lifeboat-station",
    "sap_id": "9267",
    "lifesaving_region": "Ireland",
    "lifesaving_area": "38.0"
  },
  {
    "name": "Youghal",
    "county": "Cork",
    "region": "Ireland",
    "division": "South",
    "country": "IRL",
    "station_type": "ILB",
    "lat": 51.951442720000045,
    "lon": -7.844118119999962,
    "url": "https://rnli.org/find-my-nearest/lifeboat-stations/youghal-lifeboat-station",
    "sap_id": "9271",
    "lifesaving_region": "Ireland",
    "lifesaving_area": "38.0"
  },
  {
    "name": "Ballycotton",
    "county": "Cork",
    "region": "Ireland",
    "division": "South",
    "country": "IRL",
    "station_type": "ALB",
    "lat": 51.826961520000054,
    "lon": -8.00167560999995,
    "url": "https://rnli.org/find-my-nearest/lifeboat-stations/ballycotton-lifeboat-station",
    "sap_id": "9292",
    "lifesaving_region": "Ireland",
    "lifesaving_area": "38.0"
  },
  {
    "name": "Crosshaven",
    "county": "Cork",
    "region": "Ireland",
    "division": "South",
    "country": "IRL",
    "station_type": "ILB",
    "lat": 51.804473880000046,
    "lon": -8.29796123999995,
    "url": "https://rnli.org/find-my-nearest/lifeboat-stations/crosshaven-lifeboat-station",
    "sap_id": "9298",
    "lifesaving_region": "Ireland",
    "lifesaving_area": "38.0"
  },
  {
    "name": "Kinsale",
    "county": "Cork",
    "region": "Ireland",
    "division": "South",
    "country": "IRL",
    "station_type": "ILB",
    "lat": 51.70006053000003,
    "lon": -8.517803911999977,
    "url": "https://rnli.org/find-my-nearest/lifeboat-stations/kinsale-lifeboat-station",
    "sap_id": "9299",
    "lifesaving_region": "Ireland",
    "lifesaving_area": "38.0"
  },
  {
    "name": "Courtmacsherry Harbour",
    "county": "Cork",
    "region": "Ireland",
    "division": "South",
    "country": "IRL",
    "station_type": "ALB",
    "lat": 51.63493729000004,
    "lon": -8.709291459999974,
    "url": "https://rnli.org/find-my-nearest/lifeboat-stations/courtmacsherry-harbour-lifeboat-station",
    "sap_id": "9300",
    "lifesaving_region": "Ireland",
    "lifesaving_area": "38.0"
  },
  {
    "name": "Union Hall",
    "county": "Cork",
    "region": "Ireland",
    "division": "South",
    "country": "IRL",
    "station_type": "ILB",
    "lat": 51.55871208000008,
    "lon": -9.13395289999994,
    "url": "https://rnli.org/find-my-nearest/lifeboat-stations/union-hall-lifeboat-station",
    "sap_id": "9311",
    "lifesaving_region": "Ireland",
    "lifesaving_area": "39.0"
  },
  {
    "name": "Baltimore",
    "county": "Cork",
    "region": "Ireland",
    "division": "South",
    "country": "IRL",
    "station_type": "ALB",
    "lat": 51.4877243000001,
    "lon": -9.371983529999966,
    "url": "https://rnli.org/find-my-nearest/lifeboat-stations/baltimore-lifeboat-station",
    "sap_id": "9322",
    "lifesaving_region": "Ireland",
    "lifesaving_area": "39.0"
  },
  {
    "name": "Castletownbere",
    "county": "Cork",
    "region": "Ireland",
    "division": "South",
    "country": "NIR",
    "station_type": "ALB",
    "lat": 51.65208674000007,
    "lon": -9.90839275999997,
    "url": "https://rnli.org/find-my-nearest/lifeboat-stations/castletownbere-lifeboat-station",
    "sap_id": "9338",
    "lifesaving_region": "Ireland",
    "lifesaving_area": "39.0"
  },
  {
    "name": "Valentia",
    "county": "Kerry",
    "region": "Ireland",
    "division": "South",
    "country": "IRL",
    "station_type": "ALB",
    "lat": 51.92696762000003,
    "lon": -10.2881918,
    "url": "https://rnli.org/find-my-nearest/lifeboat-stations/valentia-lifeboat-station",
    "sap_id": "9344",
    "lifesaving_region": "Ireland",
    "lifesaving_area": "39.0"
  },
  {
    "name": "Fenit",
    "county": "Kerry",
    "region": "Ireland",
    "division": "South",
    "country": "IRL",
    "station_type": "ALB",
    "lat": 52.27170181000008,
    "lon": -9.863007549999963,
    "url": "https://rnli.org/find-my-nearest/lifeboat-stations/fenit-lifeboat-station",
    "sap_id": "9353",
    "lifesaving_region": "Ireland",
    "lifesaving_area": "39.0"
  },
  {
    "name": "Lough Derg",
    "county": "Tipperary",
    "region": "Ireland",
    "division": "Central",
    "country": "IRL",
    "station_type": "ILB",
    "lat": 52.9260788,
    "lon": -8.27563,
    "url": "https://rnli.org/find-my-nearest/lifeboat-stations/lough-derg-lifeboat-station",
    "sap_id": "9357",
    "lifesaving_region": "Ireland",
    "lifesaving_area": "37.0"
  },
  {
    "name": "Kilrush",
    "county": "Clare",
    "region": "Ireland",
    "division": "South",
    "country": "IRL",
    "station_type": "ILB",
    "lat": 52.62997055000005,
    "lon": -9.500548359999925,
    "url": "https://rnli.org/find-my-nearest/lifeboat-stations/kilrush-lifeboat-station",
    "sap_id": "9360",
    "lifesaving_region": "Ireland",
    "lifesaving_area": "40.0"
  },
  {
    "name": "Aran Islands",
    "county": "Galway",
    "region": "Ireland",
    "division": "Central",
    "country": "IRL",
    "station_type": "ALB",
    "lat": 53.1198349000001,
    "lon": -9.667842869999959,
    "url": "https://rnli.org/find-my-nearest/lifeboat-stations/aran-islands-lifeboat-station",
    "sap_id": "9366",
    "lifesaving_region": "Ireland",
    "lifesaving_area": "40.0"
  },
  {
    "name": "Galway",
    "county": "Galway",
    "region": "Ireland",
    "division": "Central",
    "country": "IRL",
    "station_type": "ILB",
    "lat": 53.26913834000004,
    "lon": -9.04687881999996,
    "url": "https://rnli.org/find-my-nearest/lifeboat-stations/galway-lifeboat-station",
    "sap_id": "9371",
    "lifesaving_region": "Ireland",
    "lifesaving_area": "40.0"
  },
  {
    "name": "Lough Ree",
    "county": "Westmeath",
    "region": "Ireland",
    "division": "Central",
    "country": "IRL",
    "station_type": "ILB",
    "lat": 53.464049,
    "lon": -7.928368,
    "url": "https://rnli.org/find-my-nearest/lifeboat-stations/lough-ree-lifeboat-station",
    "sap_id": "9374",
    "lifesaving_region": "Ireland",
    "lifesaving_area": "37.0"
  },
  {
    "name": "Clifden",
    "county": "Galway",
    "region": "Ireland",
    "division": "Central",
    "country": "IRL",
    "station_type": "ALB",
    "lat": 53.486161,
    "lon": -10.050669,
    "url": "https://rnli.org/find-my-nearest/lifeboat-stations/clifden-lifeboat-station",
    "sap_id": "9377",
    "lifesaving_region": "Ireland",
    "lifesaving_area": "40.0"
  },
  {
    "name": "Achill Island",
    "county": "Mayo",
    "region": "Ireland",
    "division": "Central",
    "country": "IRL",
    "station_type": "ALB",
    "lat": 53.882774350000034,
    "lon": -9.944611549999934,
    "url": "https://rnli.org/find-my-nearest/lifeboat-stations/achill-island-lifeboat-station",
    "sap_id": "9380",
    "lifesaving_region": "Ireland",
    "lifesaving_area": "40.0"
  },
  {
    "name": "Ballyglass",
    "county": "Mayo",
    "region": "Ireland",
    "division": "Central",
    "country": "IRL",
    "station_type": "ALB",
    "lat": 54.25379181000005,
    "lon": -9.893188479999935,
    "url": "https://rnli.org/find-my-nearest/lifeboat-stations/ballyglass-lifeboat-station",
    "sap_id": "9382",
    "lifesaving_region": "Ireland",
    "lifesaving_area": "40.0"
  },
  {
    "name": "Sligo Bay",
    "county": "Sligo",
    "region": "Ireland",
    "division": "North & IOM",
    "country": "IRL",
    "station_type": "ILB",
    "lat": 54.30506516000003,
    "lon": -8.567909239999949,
    "url": "https://rnli.org/find-my-nearest/lifeboat-stations/sligo-bay-lifeboat-station",
    "sap_id": "9384",
    "lifesaving_region": "Ireland",
    "lifesaving_area": "41.0"
  },
  {
    "name": "Bundoran",
    "county": "Leitrim",
    "region": "Ireland",
    "division": "North & IOM",
    "country": "IRL",
    "station_type": "ILB",
    "lat": 54.477020260000074,
    "lon": -8.28913592999993,
    "url": "https://rnli.org/find-my-nearest/lifeboat-stations/bundoran-lifeboat-station",
    "sap_id": "9385",
    "lifesaving_region": "Ireland",
    "lifesaving_area": "41.0"
  },
  {
    "name": "Arranmore",
    "county": "Donegal",
    "region": "Ireland",
    "division": "North & IOM",
    "country": "IRL",
    "station_type": "ALB",
    "lat": 54.99696732000007,
    "lon": -8.498439789999964,
    "url": "https://rnli.org/find-my-nearest/lifeboat-stations/arranmore-lifeboat-station",
    "sap_id": "9388",
    "lifesaving_region": "Ireland",
    "lifesaving_area": "41.0"
  },
  {
    "name": "Lough Swilly",
    "county": "Donegal",
    "region": "Ireland",
    "division": "North & IOM",
    "country": "IRL",
    "station_type": "ALB",
    "lat": 55.14090347000007,
    "lon": -7.473427769999944,
    "url": "https://rnli.org/find-my-nearest/lifeboat-stations/lough-swilly-lifeboat-station",
    "sap_id": "9584",
    "lifesaving_region": "Ireland",
    "lifesaving_area": "41.0"
  }
]